{
  "DE": [
    {
      "name": "1811",
      "address": "Schlüterstraße 55",
      "zip": "10629",
      "city": "Berlin",
      "amexId": "cacf0498-4916-4c4b-9eb0-d4ddef7ed7d5",
      "assumedLocation": {
        "lat": 52.5044354,
        "lon": 13.3177009
      },
      "googleMapsUrl": "https://www.google.com/maps/search/1811,+Schl%C3%BCterstra%C3%9Fe+55,+Berlin/@52.5044354,13.3177009"
    },
    {
      "name": "893 Ryotei",
      "address": "Kantstr. 135",
      "zip": "10625",
      "city": "Berlin",
      "amexId": "f310190a-1fd1-4848-b734-ff51958990f3",
      "assumedLocation": {
        "lat": 52.5058908,
        "lon": 13.316971
      },
      "googleMapsUrl": "https://www.google.com/maps/search/893+Ryotei,+Kantstr.+135,+Berlin/@52.5058908,13.316971"
    },
    {
      "name": "ALEX Aachen Markt",
      "address": "Markt 48/50",
      "zip": "52062",
      "city": "Aachen",
      "amexId": "63a9c7f0-9d39-4a1e-a86e-696e55523a44",
      "assumedLocation": {
        "lat": 50.7765318,
        "lon": 6.0845166
      },
      "googleMapsUrl": "https://www.google.com/maps/search/ALEX+Aachen+Markt,+Markt+48%2F50,+Aachen/@50.7765318,6.0845166"
    },
    {
      "name": "ALEX Berlin am Alex",
      "address": "Panoramastr. 1A",
      "zip": "10178",
      "city": "Berlin",
      "amexId": "0b6704a8-d713-4259-b5e6-d20de079b4f8",
      "assumedLocation": {
        "lat": 52.5206252,
        "lon": 13.4091832
      },
      "googleMapsUrl": "https://www.google.com/maps/search/ALEX+Berlin+am+Alex,+Panoramastr.+1A,+Berlin/@52.5206252,13.4091832"
    },
    {
      "name": "ALEX Berlin am Mercedes Platz",
      "address": "Hedwig-Wachenheim-Str. 14",
      "zip": "10243",
      "city": "Berlin",
      "amexId": "55ccfbb0-1137-470f-94f8-ccdaa77b736c",
      "assumedLocation": {
        "lat": 52.5044238,
        "lon": 13.4433071
      },
      "googleMapsUrl": "https://www.google.com/maps/search/ALEX+Berlin+am+Mercedes+Platz,+Hedwig-Wachenheim-Str.+14,+Berlin/@52.5044238,13.4433071"
    },
    {
      "name": "ALEX Bielefeld",
      "address": "Niederwal 22",
      "zip": "33602",
      "city": "Bielefeld",
      "amexId": "e06983f8-9b52-43aa-9e90-3388e409a8c1",
      "assumedLocation": {
        "lat": 52.0205205,
        "lon": 8.533943
      },
      "googleMapsUrl": "https://www.google.com/maps/search/ALEX+Bielefeld,+Niederwal+22,+Bielefeld/@52.0205205,8.533943"
    },
    {
      "name": "ALEX Brasserie Bielefeld",
      "address": "Obernstr. 18-20",
      "zip": "33602",
      "city": "Bielefeld",
      "amexId": "7067cfb8-771b-420e-b590-1e92cdd89818",
      "assumedLocation": null,
      "googleMapsUrl": "https://goo.gl/maps/tKvkeDQLs8176zop6"
    },
    {
      "name": "ALEX Brasserie Münster",
      "address": "Salzstr. 35",
      "zip": "48143",
      "city": "Münster",
      "amexId": "55946714-f52d-4973-bfc4-fa3524597cbb",
      "assumedLocation": {
        "lat": 51.9600553,
        "lon": 7.6330475
      },
      "googleMapsUrl": "https://www.google.com/maps/search/ALEX+Brasserie+M%C3%BCnster,+Salzstr.+35,+M%C3%BCnster/@51.9600553,7.6330475"
    },
    {
      "name": "ALEX Brasserie Saarbrücken",
      "address": "Bahnhofstr. 38",
      "zip": "66111",
      "city": "Saarbrücken",
      "amexId": "5c32dfeb-9dd3-4eb1-ad06-e06daa41e0b5",
      "assumedLocation": null,
      "googleMapsUrl": "https://goo.gl/maps/dPXfjANZhbNzpoBy7"
    },
    {
      "name": "ALEX Braunschweig",
      "address": "Bohlweg 69-70",
      "zip": "38100",
      "city": "Braunschweig",
      "amexId": "461d4ccc-bc5a-42c4-a024-33cff287d369",
      "assumedLocation": {
        "lat": 52.2642835,
        "lon": 10.5266968
      },
      "googleMapsUrl": "https://www.google.com/maps/search/ALEX+Braunschweig,+Bohlweg+69-70,+Braunschweig/@52.2642835,10.5266968"
    },
    {
      "name": "ALEX Bremen Domshof",
      "address": "Domshof 16",
      "zip": "28195",
      "city": "Bremen",
      "amexId": "f365c1c3-6d35-48c9-8176-6f0a0b623f81",
      "assumedLocation": {
        "lat": 53.0767384,
        "lon": 8.8098622
      },
      "googleMapsUrl": "https://www.google.com/maps/search/ALEX+Bremen+Domshof,+Domshof+16,+Bremen/@53.0767384,8.8098622"
    },
    {
      "name": "ALEX Bremen Waterfront",
      "address": "AG-Weser-Str. .3",
      "zip": "28237",
      "city": "Bremen",
      "amexId": "80501a93-6e09-49d4-8d73-3d3393f09f57",
      "assumedLocation": {
        "lat": 53.1111742,
        "lon": 8.7482237
      },
      "googleMapsUrl": "https://www.google.com/maps/search/ALEX+Bremen+Waterfront,+AG-Weser-Str.+.3,+Bremen/@53.1111742,8.7482237"
    },
    {
      "name": "ALEX Chemnitz",
      "address": "Neumarkt 2",
      "zip": "9111",
      "city": "Chemnitz",
      "amexId": "3b2ae004-9f4e-448c-a6fc-f1144ab264e8",
      "assumedLocation": {
        "lat": 50.8335022,
        "lon": 12.9203158
      },
      "googleMapsUrl": "https://www.google.com/maps/search/ALEX+Chemnitz,+Neumarkt+2,+Chemnitz/@50.8335022,12.9203158"
    },
    {
      "name": "ALEX Dortmund",
      "address": "Ostenhellweg 18-21",
      "zip": "44135",
      "city": "Dortmund",
      "amexId": "76190727-9f45-40eb-a4a4-f1d76397f0b8",
      "assumedLocation": {
        "lat": 51.5147536,
        "lon": 7.4690429
      },
      "googleMapsUrl": "https://www.google.com/maps/search/ALEX+Dortmund,+Ostenhellweg+18-21,+Dortmund/@51.5147536,7.4690429"
    },
    {
      "name": "ALEX Dresden",
      "address": "Schlossstr. 7-9",
      "zip": "1067",
      "city": "Dresden",
      "amexId": "29750527-467c-47fa-ad40-82e6f7a18bc2",
      "assumedLocation": {
        "lat": 51.0514372,
        "lon": 13.7371978
      },
      "googleMapsUrl": "https://www.google.com/maps/search/ALEX+Dresden,+Schlossstr.+7-9,+Dresden/@51.0514372,13.7371978"
    },
    {
      "name": "ALEX Düsseldorf",
      "address": "Kaseernenstr. 48",
      "zip": "40213",
      "city": "Düsseldorf",
      "amexId": "a70066e1-7684-431f-9101-1a7278e9bd9e",
      "assumedLocation": {
        "lat": 51.2193799,
        "lon": 6.7760716
      },
      "googleMapsUrl": "https://www.google.com/maps/search/ALEX+D%C3%BCsseldorf,+Kaseernenstr.+48,+D%C3%BCsseldorf/@51.2193799,6.7760716"
    },
    {
      "name": "ALEX Frankfurt MYZEIL",
      "address": "Zeil 106",
      "zip": "60313",
      "city": "Frankfurt am Main",
      "amexId": "e921be6d-80b5-4067-a9f4-fc8a4c0f4c93",
      "assumedLocation": {
        "lat": 50.1146242,
        "lon": 8.681533
      },
      "googleMapsUrl": "https://www.google.com/maps/search/ALEX+Frankfurt+MYZEIL,+Zeil+106,+Frankfurt+am+Main/@50.1146242,8.681533"
    },
    {
      "name": "ALEX Frankfurt The Squaire",
      "address": "The Squaire 17",
      "zip": "60549",
      "city": "Frankfurt am Main",
      "amexId": "f011797e-2e44-4091-8a97-eff7cb96cb4d",
      "assumedLocation": {
        "lat": 50.0527176,
        "lon": 8.5688836
      },
      "googleMapsUrl": "https://www.google.com/maps/search/ALEX+Frankfurt+The+Squaire,+The+Squaire+17,+Frankfurt+am+Main/@50.0527176,8.5688836"
    },
    {
      "name": "ALEX Fürth",
      "address": "Schwabacherstr. 43",
      "zip": "90762",
      "city": "Fürth",
      "amexId": "cf3bb569-92df-4d95-b92a-210072b2cfed",
      "assumedLocation": {
        "lat": 49.4721671,
        "lon": 10.9881369
      },
      "googleMapsUrl": "https://www.google.com/maps/search/ALEX+F%C3%BCrth,+Schwabacherstr.+43,+F%C3%BCrth/@49.4721671,10.9881369"
    },
    {
      "name": "ALEX Gütersloh",
      "address": "Strengerstr. 11",
      "zip": "33330",
      "city": "Gütersloh",
      "amexId": "229aedf6-92c1-4833-9e59-a1db3180fd7d",
      "assumedLocation": {
        "lat": 51.9080378,
        "lon": 8.3827181
      },
      "googleMapsUrl": "https://www.google.com/maps/search/ALEX+G%C3%BCtersloh,+Strengerstr.+11,+G%C3%BCtersloh/@51.9080378,8.3827181"
    },
    {
      "name": "ALEX Hamburg",
      "address": "Jungfernstieg 54",
      "zip": "20354",
      "city": "Hamburg",
      "amexId": "9bb21d77-0a34-41b0-92af-1e7d6c39ad2c",
      "assumedLocation": {
        "lat": 53.5540699,
        "lon": 9.9919772
      },
      "googleMapsUrl": "https://www.google.com/maps/search/ALEX+Hamburg,+Jungfernstieg+54,+Hamburg/@53.5540699,9.9919772"
    },
    {
      "name": "ALEX Hamburg Überseebrücke",
      "address": "Vorsetzen 72",
      "zip": "20459",
      "city": "Hamburg",
      "amexId": "25491e0d-e499-44f7-b31c-14271b88db7e",
      "assumedLocation": {
        "lat": 53.5443459,
        "lon": 9.9756593
      },
      "googleMapsUrl": "https://www.google.com/maps/search/ALEX+Hamburg+%C3%9Cberseebr%C3%BCcke,+Vorsetzen+72,+Hamburg/@53.5443459,9.9756593"
    },
    {
      "name": "ALEX Karlsruhe",
      "address": "Post Galerie",
      "zip": "76133",
      "city": "Karlsruhe",
      "amexId": "2fcedcdc-d25b-4335-a4cd-4845bce90f17",
      "assumedLocation": {
        "lat": 49.009389,
        "lon": 8.3943522
      },
      "googleMapsUrl": "https://www.google.com/maps/search/ALEX+Karlsruhe,+Post+Galerie,+Karlsruhe/@49.009389,8.3943522"
    },
    {
      "name": "ALEX Kassel",
      "address": "Obere Königsstr. 28A",
      "zip": "34117",
      "city": "Kassel",
      "amexId": "1bea42a4-e803-415a-85ee-9f90566e6828",
      "assumedLocation": {
        "lat": 51.3137435,
        "lon": 9.4949509
      },
      "googleMapsUrl": "https://www.google.com/maps/search/ALEX+Kassel,+Obere+K%C3%B6nigsstr.+28A,+Kassel/@51.3137435,9.4949509"
    },
    {
      "name": "ALEX Koblenz",
      "address": "Firmungsstr. 32B",
      "zip": "56068",
      "city": "Koblenz",
      "amexId": "813a3611-2c0f-433a-b1df-cd528bc78045",
      "assumedLocation": {
        "lat": 50.360834,
        "lon": 7.5989599
      },
      "googleMapsUrl": "https://www.google.com/maps/search/ALEX+Koblenz,+Firmungsstr.+32B,+Koblenz/@50.360834,7.5989599"
    },
    {
      "name": "ALEX Leipzig",
      "address": "Naschmarkt 3",
      "zip": "4109",
      "city": "Leipzig",
      "amexId": "197b5ffa-a21b-432f-9849-938d71d9986d",
      "assumedLocation": {
        "lat": 51.340585,
        "lon": 12.3760305
      },
      "googleMapsUrl": "https://www.google.com/maps/search/ALEX+Leipzig,+Naschmarkt+3,+Leipzig/@51.340585,12.3760305"
    },
    {
      "name": "ALEX Ludwigshafen",
      "address": "Bismarckstr. 29",
      "zip": "67059",
      "city": "Ludwigshafen",
      "amexId": "37540a05-7396-467d-a2f2-159cc7c2a431",
      "assumedLocation": {
        "lat": 49.4795982,
        "lon": 8.44978
      },
      "googleMapsUrl": "https://www.google.com/maps/search/ALEX+Ludwigshafen,+Bismarckstr.+29,+Ludwigshafen/@49.4795982,8.44978"
    },
    {
      "name": "ALEX Magdeburg",
      "address": "Ullrichplatz 2",
      "zip": "39104",
      "city": "Magdeburg",
      "amexId": "9a1b9b31-02fc-4ff5-8b2d-1f37e6fe8edc",
      "assumedLocation": {
        "lat": 52.1308575,
        "lon": 11.6347579
      },
      "googleMapsUrl": "https://www.google.com/maps/search/ALEX+Magdeburg,+Ullrichplatz+2,+Magdeburg/@52.1308575,11.6347579"
    },
    {
      "name": "ALEX Mainz",
      "address": "Gutenbergplatz 14",
      "zip": "55116",
      "city": "Mainz",
      "amexId": "9e884495-2227-4dcf-bcaa-022d6574e33f",
      "assumedLocation": {
        "lat": 49.9987128,
        "lon": 8.272071
      },
      "googleMapsUrl": "https://www.google.com/maps/search/ALEX+Mainz,+Gutenbergplatz+14,+Mainz/@49.9987128,8.272071"
    },
    {
      "name": "ALEX Mühlheim",
      "address": "Schlossstr. 11-15",
      "zip": "45468",
      "city": "Mühlheim",
      "amexId": "9981f24e-d149-4b4f-93bd-5f570ec473e2",
      "assumedLocation": {
        "lat": 51.4282505,
        "lon": 6.8829168
      },
      "googleMapsUrl": "https://www.google.com/maps/search/ALEX+M%C3%BChlheim,+Schlossstr.+11-15,+M%C3%BChlheim/@51.4282505,6.8829168"
    },
    {
      "name": "ALEX München",
      "address": "Pasinger Bahnhofsplatz 6",
      "zip": "81241",
      "city": "München",
      "amexId": "7dd7bf8e-21ea-4221-994c-bd5094f081c8",
      "assumedLocation": {
        "lat": 48.1488459,
        "lon": 11.461915
      },
      "googleMapsUrl": "https://www.google.com/maps/search/ALEX+M%C3%BCnchen,+Pasinger+Bahnhofsplatz+6,+M%C3%BCnchen/@48.1488459,11.461915"
    },
    {
      "name": "ALEX Nürnberg",
      "address": "Hauptmarkt 10",
      "zip": "90403",
      "city": "Nürnberg",
      "amexId": "afe0c878-39f2-4d47-acff-90a32ad7fd33",
      "assumedLocation": {
        "lat": 49.4534083,
        "lon": 11.0776904
      },
      "googleMapsUrl": "https://www.google.com/maps/search/ALEX+N%C3%BCrnberg,+Hauptmarkt+10,+N%C3%BCrnberg/@49.4534083,11.0776904"
    },
    {
      "name": "ALEX Oberhausen",
      "address": "Promenade 1",
      "zip": "46047",
      "city": "Oberhausen",
      "amexId": "adcb96f9-4308-4dbf-bf82-075a7fc10751",
      "assumedLocation": {
        "lat": 51.4922174,
        "lon": 6.8795119
      },
      "googleMapsUrl": "https://www.google.com/maps/search/ALEX+Oberhausen,+Promenade+1,+Oberhausen/@51.4922174,6.8795119"
    },
    {
      "name": "ALEX Osnabrück",
      "address": "Nikolaiort 1-2",
      "zip": "49074",
      "city": "Osnabrück",
      "amexId": "3a435b8c-5c0d-4fe6-a286-fedb335824bb",
      "assumedLocation": {
        "lat": 52.276023,
        "lon": 8.04506
      },
      "googleMapsUrl": "https://www.google.com/maps/search/ALEX+Osnabr%C3%BCck,+Nikolaiort+1-2,+Osnabr%C3%BCck/@52.276023,8.04506"
    },
    {
      "name": "ALEX Paderborn",
      "address": "Kamp 30-32",
      "zip": "33098",
      "city": "Paderborn",
      "amexId": "63b93544-1dbc-422f-94cd-b6ba960ebf3c",
      "assumedLocation": {
        "lat": 51.716849,
        "lon": 8.7574993
      },
      "googleMapsUrl": "https://www.google.com/maps/search/ALEX+Paderborn,+Kamp+30-32,+Paderborn/@51.716849,8.7574993"
    },
    {
      "name": "ALEX Potsdam",
      "address": "Platz der Einheit 14",
      "zip": "14469",
      "city": "Potsdam",
      "amexId": "425c3521-26d9-4948-a967-593df53e9b29",
      "assumedLocation": {
        "lat": 52.3995173,
        "lon": 13.0585975
      },
      "googleMapsUrl": "https://www.google.com/maps/search/ALEX+Potsdam,+Platz+der+Einheit+14,+Potsdam/@52.3995173,13.0585975"
    },
    {
      "name": "ALEX Regensburg",
      "address": "Neupfarrplatz 6A",
      "zip": "93047",
      "city": "Regensburg",
      "amexId": "d36a1120-3170-4f5b-9851-dc0025834a2f",
      "assumedLocation": {
        "lat": 49.0188126,
        "lon": 12.0963748
      },
      "googleMapsUrl": "https://www.google.com/maps/search/ALEX+Regensburg,+Neupfarrplatz+6A,+Regensburg/@49.0188126,12.0963748"
    },
    {
      "name": "ALEX Rostock",
      "address": "Neuer Markt 17-18",
      "zip": "18055",
      "city": "Rostock",
      "amexId": "8b144b00-1fcf-4e76-aece-bc6c16c9253c",
      "assumedLocation": {
        "lat": 54.0890682,
        "lon": 12.1394072
      },
      "googleMapsUrl": "https://www.google.com/maps/search/ALEX+Rostock,+Neuer+Markt+17-18,+Rostock/@54.0890682,12.1394072"
    },
    {
      "name": "ALEX Rotkreuzplatz Münche",
      "address": "Rotkreuzplatz 8",
      "zip": "80634",
      "city": "München",
      "amexId": "b772afe4-cd97-40c5-81b0-7e723af30b7b",
      "assumedLocation": {
        "lat": 48.1535216,
        "lon": 11.5327278
      },
      "googleMapsUrl": "https://www.google.com/maps/search/ALEX+Rotkreuzplatz+M%C3%BCnche,+Rotkreuzplatz+8,+M%C3%BCnchen/@48.1535216,11.5327278"
    },
    {
      "name": "ALEX Saarbrücken",
      "address": "Saarstr. 15",
      "zip": "66111",
      "city": "Saarbrücken",
      "amexId": "6032c7cc-1d0b-437a-9bc4-accb226f3dd0",
      "assumedLocation": {
        "lat": 49.232149,
        "lon": 6.9952711
      },
      "googleMapsUrl": "https://www.google.com/maps/search/ALEX+Saarbr%C3%BCcken,+Saarstr.+15,+Saarbr%C3%BCcken/@49.232149,6.9952711"
    },
    {
      "name": "ALEX Skyline Plaza Frankfurt",
      "address": "Europaallee 8",
      "zip": "60327",
      "city": "Frankfurt am Main",
      "amexId": "9c864d0e-ad2b-45e7-9ee9-6d3c68cdead4",
      "assumedLocation": {
        "lat": 50.1089339,
        "lon": 8.6531019
      },
      "googleMapsUrl": "https://www.google.com/maps/search/ALEX+Skyline+Plaza+Frankfurt,+Europaallee+8,+Frankfurt+am+Main/@50.1089339,8.6531019"
    },
    {
      "name": "ALEX Solingen",
      "address": "Mühlenplatz 1",
      "zip": "42651",
      "city": "Solingen",
      "amexId": "761d2751-c70a-4cb2-b546-2e1c1b9946cb",
      "assumedLocation": {
        "lat": 51.1740307,
        "lon": 7.0847364
      },
      "googleMapsUrl": "https://www.google.com/maps/search/ALEX+Solingen,+M%C3%BChlenplatz+1,+Solingen/@51.1740307,7.0847364"
    },
    {
      "name": "ALEX Wiesbaden",
      "address": "Langgasse 38",
      "zip": "65183",
      "city": "Wiesbaden",
      "amexId": "4ab3ff88-0734-414d-958b-9c91c2ff24c9",
      "assumedLocation": {
        "lat": 50.0849675,
        "lon": 8.2400532
      },
      "googleMapsUrl": "https://www.google.com/maps/search/ALEX+Wiesbaden,+Langgasse+38,+Wiesbaden/@50.0849675,8.2400532"
    },
    {
      "name": "ALEX Zwickau",
      "address": "Hauptmarkt 11-12",
      "zip": "8056",
      "city": "Zwickau",
      "amexId": "b6c8f999-956e-43ad-9e69-5734c60534a7",
      "assumedLocation": {
        "lat": 50.71779,
        "lon": 12.4964
      },
      "googleMapsUrl": "https://www.google.com/maps/search/ALEX+Zwickau,+Hauptmarkt+11-12,+Zwickau/@50.71779,12.4964"
    },
    {
      "name": "Am Kai",
      "address": "Kaistr. 16",
      "zip": "40213",
      "city": "Düsseldorf",
      "amexId": "6c2c602d-7bdf-4a4d-bf87-0f55089b9a98",
      "assumedLocation": {
        "lat": 51.2152342,
        "lon": 6.7546344
      },
      "googleMapsUrl": "https://www.google.com/maps/search/Am+Kai,+Kaistr.+16,+D%C3%BCsseldorf/@51.2152342,6.7546344"
    },
    {
      "name": "AZUKI",
      "address": "Hofgraben 9",
      "zip": "80539",
      "city": "München",
      "amexId": "b10fa6ec-29b5-4af8-bde7-5ed25d68cb40",
      "assumedLocation": {
        "lat": 48.1391277,
        "lon": 11.5784483
      },
      "googleMapsUrl": "https://www.google.com/maps/search/AZUKI,+Hofgraben+9,+M%C3%BCnchen/@48.1391277,11.5784483"
    },
    {
      "name": "Bar-Centrale",
      "address": "Ledererstr. 23",
      "zip": "80331",
      "city": "München",
      "amexId": "bdb3598b-9a2c-4cb3-a630-6c217e0f4981",
      "assumedLocation": {
        "lat": 48.1368655,
        "lon": 11.5798787
      },
      "googleMapsUrl": "https://www.google.com/maps/search/Bar-Centrale,+Ledererstr.+23,+M%C3%BCnchen/@48.1368655,11.5798787"
    },
    {
      "name": "Bianc",
      "address": "Am Sandtorkai 50",
      "zip": "20457",
      "city": "Hamburg",
      "amexId": "f2ab61ce-482c-4e03-b50b-70aa2b3c63a1",
      "assumedLocation": {
        "lat": 53.5430353,
        "lon": 9.9941158
      },
      "googleMapsUrl": "https://www.google.com/maps/search/Bianc,+Am+Sandtorkai+50,+Hamburg/@53.5430353,9.9941158"
    },
    {
      "name": "Blauer Bock",
      "address": "Sebastiansplatz 9",
      "zip": "80331 ",
      "city": "München",
      "amexId": "4bc44ca1-143c-413f-9e77-315c11b84e47",
      "assumedLocation": null,
      "googleMapsUrl": "https://goo.gl/maps/U3pLWiQk9sCHGEki8"
    },
    {
      "name": "Bless Restaurant Hamburg",
      "address": "Eppendorfer Weg 186",
      "zip": "20253",
      "city": "Hamburg",
      "amexId": "02664d0f-584c-4c7f-92b5-e1a32f978a1e",
      "assumedLocation": {
        "lat": 53.5809973,
        "lon": 9.9702531
      },
      "googleMapsUrl": "https://www.google.com/maps/search/Bless+Restaurant+Hamburg,+Eppendorfer+Weg+186,+Hamburg/@53.5809973,9.9702531"
    },
    {
      "name": "BLOCK HOUSE",
      "address": "Willestr. 4-6",
      "zip": "24103",
      "city": "Kiel",
      "amexId": "b860a38f-3083-4d92-8bb7-4a31eb377d84",
      "assumedLocation": null,
      "googleMapsUrl": "https://goo.gl/maps/XKyYqkDiEcew2QoM8"
    },
    {
      "name": "BLOCK HOUSE",
      "address": "Steinweg 27",
      "zip": "38100",
      "city": "Braunschweig",
      "amexId": "039c7377-7e35-4e5f-977a-02805a31729b",
      "assumedLocation": {
        "lat": 52.2654951,
        "lon": 10.5307569
      },
      "googleMapsUrl": "https://www.google.com/maps/search/BLOCK+HOUSE,+Steinweg+27,+Braunschweig/@52.2654951,10.5307569"
    },
    {
      "name": "BLOCK HOUSE",
      "address": "Kurze Str. 1",
      "zip": "40213",
      "city": "Düsseldorf",
      "amexId": "3fa255cc-5ae0-4cf8-8770-361b593ae219",
      "assumedLocation": null,
      "googleMapsUrl": "https://goo.gl/maps/H1vzf5Fd6HB5n6g77"
    },
    {
      "name": "BLOCK HOUSE",
      "address": "Habsburger Ring 24-28",
      "zip": "50674",
      "city": "Köln",
      "amexId": "cf92bf9d-c5e0-4fcb-93f9-dc3196b1c86f",
      "assumedLocation": {
        "lat": 50.93576,
        "lon": 6.93941
      },
      "googleMapsUrl": "https://www.google.com/maps/search/BLOCK+HOUSE,+Habsburger+Ring+24-28,+K%C3%B6ln/@50.93576,6.93941"
    },
    {
      "name": "BLOCK HOUSE",
      "address": "Karl-Marx-Allee 91",
      "zip": "10243",
      "city": "Berlin",
      "amexId": "40687936-6830-4fd0-858d-c6637ef368cf",
      "assumedLocation": {
        "lat": 52.517677,
        "lon": 13.440378
      },
      "googleMapsUrl": "https://www.google.com/maps/search/BLOCK+HOUSE,+Karl-Marx-Allee+91,+Berlin/@52.517677,13.440378"
    },
    {
      "name": "BLOCK HOUSE",
      "address": "Kurfürstendamm 161",
      "zip": "10709",
      "city": "Berlin",
      "amexId": "728efa8a-9a1e-42b4-b3be-28495d81c811",
      "assumedLocation": null,
      "googleMapsUrl": "https://goo.gl/maps/6LBEU66aDiVLLEQw9"
    },
    {
      "name": "BLOCK HOUSE",
      "address": "Theodor-Heuss-Platz 12",
      "zip": "14052",
      "city": "Berlin",
      "amexId": "9acf28d9-2159-4cf4-9851-6aec0273282b",
      "assumedLocation": {
        "lat": 52.5096983,
        "lon": 13.2706589
      },
      "googleMapsUrl": "https://www.google.com/maps/search/BLOCK+HOUSE,+Theodor-Heuss-Platz+12,+Berlin/@52.5096983,13.2706589"
    },
    {
      "name": "BLOCK HOUSE",
      "address": "Budapester Str. 42-50",
      "zip": "10787",
      "city": "Berlin",
      "amexId": "c6ff1666-8f88-4ace-b7da-f116a7711a4a",
      "assumedLocation": {
        "lat": 52.5054046,
        "lon": 13.3370545
      },
      "googleMapsUrl": "https://www.google.com/maps/search/BLOCK+HOUSE,+Budapester+Str.+42-50,+Berlin/@52.5054046,13.3370545"
    },
    {
      "name": "BLOCK HOUSE",
      "address": "Karl-Liebknecht-Str. 7",
      "zip": "10178",
      "city": "Berlin",
      "amexId": "cdcb09c7-6d62-4bc8-80b9-030749f00ca7",
      "assumedLocation": {
        "lat": 52.520836,
        "lon": 13.405541
      },
      "googleMapsUrl": "https://www.google.com/maps/search/BLOCK+HOUSE,+Karl-Liebknecht-Str.+7,+Berlin/@52.520836,13.405541"
    },
    {
      "name": "BLOCK HOUSE",
      "address": "Teltower Damm 36",
      "zip": "14169",
      "city": "Berlin",
      "amexId": "f9eaa562-9e09-48e4-b530-d327d9b0e91b",
      "assumedLocation": {
        "lat": 52.4315011,
        "lon": 13.2587558
      },
      "googleMapsUrl": "https://www.google.com/maps/search/BLOCK+HOUSE,+Teltower+Damm+36,+Berlin/@52.4315011,13.2587558"
    },
    {
      "name": "BLOCK HOUSE",
      "address": "Friedrichstr. 100",
      "zip": "10177",
      "city": "Berlin",
      "amexId": "fc2194b9-475c-4be5-9f45-dfa8e6695479",
      "assumedLocation": {
        "lat": 52.520458,
        "lon": 13.388587
      },
      "googleMapsUrl": "https://www.google.com/maps/search/BLOCK+HOUSE,+Friedrichstr.+100,+Berlin/@52.520458,13.388587"
    },
    {
      "name": "BLOCK HOUSE",
      "address": "Holstentor Passage",
      "zip": "23552",
      "city": "Lübeck",
      "amexId": "b77c56e3-19f6-41ac-9410-8e03160b3b9a",
      "assumedLocation": null,
      "googleMapsUrl": "https://goo.gl/maps/tDFn3YU2VLFxzKn38"
    },
    {
      "name": "BLOCK HOUSE",
      "address": "Ulrichsplatz 3",
      "zip": "86150",
      "city": "Augsburg",
      "amexId": "0a3ee7e3-f168-45dd-aeb0-43f06aa4f20f",
      "assumedLocation": {
        "lat": 48.3632534,
        "lon": 10.9005751
      },
      "googleMapsUrl": "https://www.google.com/maps/search/BLOCK+HOUSE,+Ulrichsplatz+3,+Augsburg/@48.3632534,10.9005751"
    },
    {
      "name": "BLOCK HOUSE",
      "address": "Sachsentor 2",
      "zip": "21029",
      "city": "Hamburg",
      "amexId": "130011b9-a6a7-4b34-bcd5-a682b0537bf2",
      "assumedLocation": {
        "lat": 53.488476,
        "lon": 10.211336
      },
      "googleMapsUrl": "https://www.google.com/maps/search/BLOCK+HOUSE,+Sachsentor+2,+Hamburg/@53.488476,10.211336"
    },
    {
      "name": "BLOCK HOUSE",
      "address": "Waitzstr. 1",
      "zip": "22607",
      "city": "Hamburg",
      "amexId": "1b475016-3c53-4455-8bc0-0556cafa27ed",
      "assumedLocation": null,
      "googleMapsUrl": "https://goo.gl/maps/kgVJozdrhor4mbwH6"
    },
    {
      "name": "BLOCK HOUSE",
      "address": "Fuhlsbüttler Str. 165",
      "zip": "22307",
      "city": "Hamburg",
      "amexId": "29e7b051-6299-4ab8-a385-646ad4482930",
      "assumedLocation": null,
      "googleMapsUrl": "https://goo.gl/maps/9XZZ9tWyL1e2prkd9"
    },
    {
      "name": "BLOCK HOUSE",
      "address": "Dorotheenstr. 57",
      "zip": "22301",
      "city": "Hamburg",
      "amexId": "2ecf69e4-ef47-465e-a74a-54180db281a8",
      "assumedLocation": {
        "lat": 53.5827734,
        "lon": 10.007904
      },
      "googleMapsUrl": "https://www.google.com/maps/search/BLOCK+HOUSE,+Dorotheenstr.+57,+Hamburg/@53.5827734,10.007904"
    },
    {
      "name": "BLOCK HOUSE",
      "address": "Kirchenallee 49-51",
      "zip": "20099",
      "city": "Hamburg",
      "amexId": "46dbac72-30b0-47c2-a1ec-04a84cfc0599",
      "assumedLocation": {
        "lat": 53.5533798,
        "lon": 10.0088462
      },
      "googleMapsUrl": "https://www.google.com/maps/search/BLOCK+HOUSE,+Kirchenallee+49-51,+Hamburg/@53.5533798,10.0088462"
    },
    {
      "name": "BLOCK HOUSE",
      "address": "Jungfernstieg 1-4",
      "zip": "20095",
      "city": "Hamburg",
      "amexId": "488bdf95-2ae3-494e-a743-5f29cb4457af",
      "assumedLocation": {
        "lat": 53.551535,
        "lon": 9.993855
      },
      "googleMapsUrl": "https://www.google.com/maps/search/BLOCK+HOUSE,+Jungfernstieg+1-4,+Hamburg/@53.551535,9.993855"
    },
    {
      "name": "BLOCK HOUSE",
      "address": "Sand 8",
      "zip": "21073",
      "city": "Hamburg",
      "amexId": "6c6e3fac-d049-4f0d-a01c-32f910248559",
      "assumedLocation": {
        "lat": 53.462002,
        "lon": 9.980705
      },
      "googleMapsUrl": "https://www.google.com/maps/search/BLOCK+HOUSE,+Sand+8,+Hamburg/@53.462002,9.980705"
    },
    {
      "name": "BLOCK HOUSE",
      "address": "Groten Hoff 12",
      "zip": "22359",
      "city": "Hamburg",
      "amexId": "6eb29268-1f91-4aa8-b387-0d54c7d1a0be",
      "assumedLocation": {
        "lat": 53.647711,
        "lon": 10.164606
      },
      "googleMapsUrl": "https://www.google.com/maps/search/BLOCK+HOUSE,+Groten+Hoff+12,+Hamburg/@53.647711,10.164606"
    },
    {
      "name": "BLOCK HOUSE",
      "address": "Mittelweg 122",
      "zip": "20148",
      "city": "Hamburg",
      "amexId": "93d7d19d-5379-4c8e-9ebb-86eca8415b17",
      "assumedLocation": null,
      "googleMapsUrl": "https://goo.gl/maps/zNVMZyqWw9G3zXGp6"
    },
    {
      "name": "BLOCK HOUSE",
      "address": "Schlossstr. 48",
      "zip": "22041",
      "city": "Hamburg",
      "amexId": "9cebd2b6-ce79-4521-900f-e501b4cfff02",
      "assumedLocation": null,
      "googleMapsUrl": "https://g.page/blockhousewandsbek?share"
    },
    {
      "name": "BLOCK HOUSE",
      "address": "Hoheluftchausee 2",
      "zip": "20253",
      "city": "Hamburg",
      "amexId": "a76ebea2-c871-4737-b52b-c2d649f044df",
      "assumedLocation": {
        "lat": 53.5792161,
        "lon": 9.9757101
      },
      "googleMapsUrl": "https://www.google.com/maps/search/BLOCK+HOUSE,+Hoheluftchausee+2,+Hamburg/@53.5792161,9.9757101"
    },
    {
      "name": "BLOCK HOUSE",
      "address": "Alte Elbgaustr. 9",
      "zip": "22523",
      "city": "Hamburg",
      "amexId": "eb667adf-8c66-4768-8389-38f5298cbc2f",
      "assumedLocation": {
        "lat": 53.6068,
        "lon": 9.90296
      },
      "googleMapsUrl": "https://www.google.com/maps/search/BLOCK+HOUSE,+Alte+Elbgaustr.+9,+Hamburg/@53.6068,9.90296"
    },
    {
      "name": "BLOCK HOUSE",
      "address": "Heegbarg 32",
      "zip": "22391",
      "city": "Hamburg",
      "amexId": "f80d7897-b001-4e97-8c29-af2e8261bd97",
      "assumedLocation": null,
      "googleMapsUrl": "https://goo.gl/maps/tpsV4tCncYxJCYiA9"
    },
    {
      "name": "BLOCK HOUSE",
      "address": "Anger 39",
      "zip": "99084",
      "city": "Erfurt",
      "amexId": "543b0717-68eb-484c-abaa-0e8b275a2c68",
      "assumedLocation": {
        "lat": 50.9742261,
        "lon": 11.0307215
      },
      "googleMapsUrl": "https://www.google.com/maps/search/BLOCK+HOUSE,+Anger+39,+Erfurt/@50.9742261,11.0307215"
    },
    {
      "name": "BLOCK HOUSE",
      "address": "Große Str. 13",
      "zip": "22926",
      "city": "Ahrensburg",
      "amexId": "dbed182a-9556-4a56-8ccc-34ef189e5749",
      "assumedLocation": {
        "lat": 53.6753374,
        "lon": 10.2406415
      },
      "googleMapsUrl": "https://www.google.com/maps/search/BLOCK+HOUSE,+Gro%C3%9Fe+Str.+13,+Ahrensburg/@53.6753374,10.2406415"
    },
    {
      "name": "BLOCK HOUSE",
      "address": "Europaallee 12 - 22",
      "zip": "60327",
      "city": "Frankfurt am Main",
      "amexId": "416dda3d-498f-48ea-b1d7-ca3d69ce9f77",
      "assumedLocation": {
        "lat": 50.1092316,
        "lon": 8.6503276
      },
      "googleMapsUrl": "https://www.google.com/maps/search/BLOCK+HOUSE,+Europaallee+12+-+22,+Frankfurt+am+Main/@50.1092316,8.6503276"
    },
    {
      "name": "BLOCK HOUSE",
      "address": "Wiesenau 1",
      "zip": "60323",
      "city": "Frankfurt am Main",
      "amexId": "54d4ecc7-f9d3-4a73-afbc-c1fa72dfa44b",
      "assumedLocation": null,
      "googleMapsUrl": "https://goo.gl/maps/m923qnq5oN43p3FK9"
    },
    {
      "name": "BLOCK HOUSE",
      "address": "Börsenplatz 5",
      "zip": "60313",
      "city": "Frankfurt am Main",
      "amexId": "562576fe-623d-47b0-bfb1-398a8aea0016",
      "assumedLocation": {
        "lat": 50.11466,
        "lon": 8.677979
      },
      "googleMapsUrl": "https://www.google.com/maps/search/BLOCK+HOUSE,+B%C3%B6rsenplatz+5,+Frankfurt+am+Main/@50.11466,8.677979"
    },
    {
      "name": "BLOCK HOUSE",
      "address": "Hauptmarkt 12",
      "zip": "90403",
      "city": "Nürnberg",
      "amexId": "803a4249-fe0c-4855-bb2d-0f42ddf9c8bf",
      "assumedLocation": null,
      "googleMapsUrl": "https://goo.gl/maps/dyhLfSLTjYPzkZd8A"
    },
    {
      "name": "BLOCK HOUSE",
      "address": "Prielmeyerstr. 1 + 3",
      "zip": "80335",
      "city": "München",
      "amexId": "5ffb7f1f-3632-4334-aad5-0f6b42013019",
      "assumedLocation": {
        "lat": 48.1411293,
        "lon": 11.5616176
      },
      "googleMapsUrl": "https://www.google.com/maps/search/BLOCK+HOUSE,+Prielmeyerstr.+1+%2B+3,+M%C3%BCnchen/@48.1411293,11.5616176"
    },
    {
      "name": "BLOCK HOUSE",
      "address": "Leopoldstr. 32",
      "zip": "80802",
      "city": "München",
      "amexId": "68352a7e-0beb-4149-90ed-4f3d89f0218a",
      "assumedLocation": {
        "lat": 48.155845,
        "lon": 11.584335
      },
      "googleMapsUrl": "https://www.google.com/maps/search/BLOCK+HOUSE,+Leopoldstr.+32,+M%C3%BCnchen/@48.155845,11.584335"
    },
    {
      "name": "BLOCK HOUSE",
      "address": "Königstraße 45",
      "zip": "70173",
      "city": "Stuttgart",
      "amexId": "a92c3f62-b5f1-4d37-911d-869293df36ef",
      "assumedLocation": null,
      "googleMapsUrl": "https://www.google.com/maps/search/?api=1&query=BLOCK+HOUSE,+K%C3%B6nigstra%C3%9Fe+45,+Stuttgart&query_place_id=ChIJ56038qbbmUcRM7Fy4txQuCE"
    },
    {
      "name": "BLOCK HOUSE",
      "address": "Arnulf-Klett-Platz 3",
      "zip": "70173",
      "city": "Stuttgart",
      "amexId": "bc765518-b2ec-4509-a5eb-d2c18a8a6ec4",
      "assumedLocation": {
        "lat": 48.7830435,
        "lon": 9.1802602
      },
      "googleMapsUrl": "https://www.google.com/maps/search/BLOCK+HOUSE,+Arnulf-Klett-Platz+3,+Stuttgart/@48.7830435,9.1802602"
    },
    {
      "name": "BLOCK HOUSE",
      "address": "Hildesheimer Str. 9",
      "zip": "30169",
      "city": "Hannover",
      "amexId": "1149e69a-67cc-4bcb-9e77-e38337d67127",
      "assumedLocation": {
        "lat": 52.3679879,
        "lon": 9.7446299
      },
      "googleMapsUrl": "https://www.google.com/maps/search/BLOCK+HOUSE,+Hildesheimer+Str.+9,+Hannover/@52.3679879,9.7446299"
    },
    {
      "name": "BLOCK HOUSE",
      "address": "Staendehausstraeße 4",
      "zip": "30159",
      "city": "Hannover",
      "amexId": "836cc3b2-8f6a-4efd-a773-ea3a323bb5c9",
      "assumedLocation": {
        "lat": 52.3732669,
        "lon": 9.7387178
      },
      "googleMapsUrl": "https://www.google.com/maps/search/BLOCK+HOUSE,+Staendehausstrae%C3%9Fe+4,+Hannover/@52.3732669,9.7387178"
    },
    {
      "name": "BLOCK HOUSE",
      "address": "Thielenplatz 3",
      "zip": "30159",
      "city": "Hannover",
      "amexId": "8931d12c-69ce-468c-b900-a16cbc35b44b",
      "assumedLocation": null,
      "googleMapsUrl": "https://www.google.com/maps/search/?api=1&query=Block+House+Hannover,+Thielenplatz+9,+Hannover&query_place_id=ChIJefhxPbJ0sEcRoify21V9sMs"
    },
    {
      "name": "BLOCK HOUSE",
      "address": "P5 9-10",
      "zip": "68161",
      "city": "Mannheim",
      "amexId": "e781c87b-15d4-4b7a-b00b-6422107d6c6e",
      "assumedLocation": {
        "lat": 49.4867392,
        "lon": 8.4707278
      },
      "googleMapsUrl": "https://www.google.com/maps/search/BLOCK+HOUSE,+P5+9-10,+Mannheim/@49.4867392,8.4707278"
    },
    {
      "name": "BLOCK HOUSE",
      "address": "Breite Str. 16",
      "zip": "18055",
      "city": "Rostock",
      "amexId": "6ff84b0f-f657-4b07-a98d-a286267061f1",
      "assumedLocation": null,
      "googleMapsUrl": "https://goo.gl/maps/K1tLiKLjkssiVki9A"
    },
    {
      "name": "BLOCK HOUSE Bielefeld",
      "address": "Obernstr. 44",
      "zip": "33602",
      "city": "Bielefeld",
      "amexId": "7245dd28-721a-4fca-9ad3-ed851bbfa3fe",
      "assumedLocation": {
        "lat": 52.0196527,
        "lon": 8.5275478
      },
      "googleMapsUrl": "https://www.google.com/maps/search/BLOCK+HOUSE+Bielefeld,+Obernstr.+44,+Bielefeld/@52.0196527,8.5275478"
    },
    {
      "name": "BLOCK HOUSE Düsseldorf Hauptbahnhof",
      "address": "Harkortstr. 8",
      "zip": "40210",
      "city": "Düsseldorf",
      "amexId": "991defdf-2ae5-41a2-88e1-893168187e26",
      "assumedLocation": {
        "lat": 51.2194591,
        "lon": 6.7920523
      },
      "googleMapsUrl": "https://www.google.com/maps/search/BLOCK+HOUSE+D%C3%BCsseldorf+Hauptbahnhof,+Harkortstr.+8,+D%C3%BCsseldorf/@51.2194591,6.7920523"
    },
    {
      "name": "BLOCK HOUSE Essen",
      "address": "Kennedyplatz 1",
      "zip": "45127",
      "city": "Essen",
      "amexId": "d19096cf-7e0e-4c50-a9a4-6de5601b12bb",
      "assumedLocation": {
        "lat": 51.4562784,
        "lon": 7.0117587
      },
      "googleMapsUrl": "https://www.google.com/maps/search/BLOCK+HOUSE+Essen,+Kennedyplatz+1,+Essen/@51.4562784,7.0117587"
    },
    {
      "name": "BLOCK HOUSE Westerland/Sylt",
      "address": "Neue Str. 1",
      "zip": "25980",
      "city": "Westerland (Sylt)",
      "amexId": "9608a5ef-b766-47c5-a988-4de8c2e06dca",
      "assumedLocation": {
        "lat": 54.9082794,
        "lon": 8.3031728
      },
      "googleMapsUrl": "https://www.google.com/maps/search/BLOCK+HOUSE+Westerland%2FSylt,+Neue+Str.+1,+Westerland+%28Sylt%29/@54.9082794,8.3031728"
    },
    {
      "name": "Bocca di Bacco",
      "address": "Friedrichstr. 167-168",
      "zip": "10117 ",
      "city": "Berlin",
      "amexId": "f7eff340-8fa8-4e66-bdca-f903ec8f234a",
      "assumedLocation": {
        "lat": 52.5151203,
        "lon": 13.3889483
      },
      "googleMapsUrl": "https://www.google.com/maps/search/Bocca+di+Bacco,+Friedrichstr.+167-168,+Berlin/@52.5151203,13.3889483"
    },
    {
      "name": "Bootshaus Alster",
      "address": "Ballindamm 14A",
      "zip": "20095",
      "city": "Hamburg",
      "amexId": "7404c5b8-043c-4245-8383-2dddad529c1c",
      "assumedLocation": {
        "lat": 53.5532951,
        "lon": 9.9965448
      },
      "googleMapsUrl": "https://www.google.com/maps/search/Bootshaus+Alster,+Ballindamm+14A,+Hamburg/@53.5532951,9.9965448"
    },
    {
      "name": "Bootshaus Grill and Bar",
      "address": "Am Kaiserkai 19",
      "zip": "20457 ",
      "city": "Hamburg",
      "amexId": "6caeb566-1ca8-4d65-821b-b61e37d9a07e",
      "assumedLocation": null,
      "googleMapsUrl": "https://g.page/Bootshausgrillundbar?share"
    },
    {
      "name": "Brasserie Stadthaus",
      "address": "Mühlenstr. 31",
      "zip": "40213 ",
      "city": "Düsseldorf",
      "amexId": "a9ad9103-e960-44cc-b3cc-65bfd0e324cc",
      "assumedLocation": {
        "lat": 51.2274435,
        "lon": 6.7742452
      },
      "googleMapsUrl": "https://www.google.com/maps/search/Brasserie+Stadthaus,+M%C3%BChlenstr.+31,+D%C3%BCsseldorf/@51.2274435,6.7742452"
    },
    {
      "name": "Brauhaus Ernst August",
      "address": "Schmiedestr. 13",
      "zip": "30159",
      "city": "Hannover",
      "amexId": "e6383fc1-fd0a-48ee-8785-d3a0bd92bb7d",
      "assumedLocation": {
        "lat": 52.3730499,
        "lon": 9.7346457
      },
      "googleMapsUrl": "https://www.google.com/maps/search/Brauhaus+Ernst+August,+Schmiedestr.+13,+Hannover/@52.3730499,9.7346457"
    },
    {
      "name": "Brenner Grill",
      "address": "Maximilianstr. 15",
      "zip": "80339",
      "city": "München",
      "amexId": "8d8bbff7-2a8a-4401-9b3b-50c223e6eeb1",
      "assumedLocation": {
        "lat": 48.1391656,
        "lon": 11.5810272
      },
      "googleMapsUrl": "https://www.google.com/maps/search/Brenner+Grill,+Maximilianstr.+15,+M%C3%BCnchen/@48.1391656,11.5810272"
    },
    {
      "name": "buffet Kull bar",
      "address": "Marienstr. 4",
      "zip": "80331",
      "city": "München",
      "amexId": "f7871e68-82fd-4326-8c88-444886125023",
      "assumedLocation": {
        "lat": 48.1365238,
        "lon": 11.580778
      },
      "googleMapsUrl": "https://www.google.com/maps/search/buffet+Kull+bar,+Marienstr.+4,+M%C3%BCnchen/@48.1365238,11.580778"
    },
    {
      "name": "Chang",
      "address": "Marktplatz 9",
      "zip": "82031",
      "city": "Grünwald",
      "amexId": "d47bbf41-0b0e-45a1-a3de-eb940d198ef2",
      "assumedLocation": {
        "lat": 48.039655,
        "lon": 11.5220791
      },
      "googleMapsUrl": "https://www.google.com/maps/search/Chang,+Marktplatz+9,+Gr%C3%BCnwald/@48.039655,11.5220791"
    },
    {
      "name": "Charlot Operncafe",
      "address": "Opernplatz 10",
      "zip": "60313",
      "city": "Frankfurt am Main",
      "amexId": "30e018d4-2db6-4116-9bf7-89743f5f8169",
      "assumedLocation": null,
      "googleMapsUrl": "https://goo.gl/maps/R2tm1EPXubLwGz8K7"
    },
    {
      "name": "Clouds",
      "address": "Reeperbahn 1",
      "zip": "20359 ",
      "city": "Hamburg",
      "amexId": "48933536-617b-4499-a535-4711b5fe9c4a",
      "assumedLocation": {
        "lat": 53.5496882,
        "lon": 9.9680125
      },
      "googleMapsUrl": "https://www.google.com/maps/search/Clouds,+Reeperbahn+1,+Hamburg/@53.5496882,9.9680125"
    },
    {
      "name": "Club Social \"Mexicano\"",
      "address": "Stiftstraße 41",
      "zip": "60313",
      "city": "Frankfurt am Main",
      "amexId": "b1f7bbd7-d9ca-4f2d-a091-1e8a7640a532",
      "assumedLocation": null,
      "googleMapsUrl": "https://goo.gl/maps/uWSzryUmFZGDPfQe7"
    },
    {
      "name": "Coast by east",
      "address": "Grosser Grassbrock 14",
      "zip": "20359",
      "city": "Hamburg",
      "amexId": "098360fa-d7d1-4d7c-98df-c85eb323fc1e",
      "assumedLocation": {
        "lat": 53.5398083,
        "lon": 9.9931365
      },
      "googleMapsUrl": "https://www.google.com/maps/search/Coast+by+east,+Grosser+Grassbrock+14,+Hamburg/@53.5398083,9.9931365"
    },
    {
      "name": "Dae Mon",
      "address": "Monbijouxplatz 11",
      "zip": "10178",
      "city": "Berlin",
      "amexId": "471fabb5-3497-4f13-a785-9c1480916e92",
      "assumedLocation": {
        "lat": 52.5227699,
        "lon": 13.399358
      },
      "googleMapsUrl": "https://www.google.com/maps/search/Dae+Mon,+Monbijouxplatz+11,+Berlin/@52.5227699,13.399358"
    },
    {
      "name": "Dorfkrug",
      "address": "Braderuper Weg 3",
      "zip": "25999",
      "city": "Kampen (Sylt)",
      "amexId": "b502e586-38b0-41a7-b1b8-01852c7ae11a",
      "assumedLocation": {
        "lat": 54.9529338,
        "lon": 8.34396
      },
      "googleMapsUrl": "https://www.google.com/maps/search/Dorfkrug,+Braderuper+Weg+3,+Kampen+%28Sylt%29/@54.9529338,8.34396"
    },
    {
      "name": "elements",
      "address": "Königsbrücker Str. 96",
      "zip": "1099",
      "city": "Dresden",
      "amexId": "fda81b65-1b45-4052-b96f-5fee8f33d8db",
      "assumedLocation": {
        "lat": 51.0809242,
        "lon": 13.7608548
      },
      "googleMapsUrl": "https://www.google.com/maps/search/elements,+K%C3%B6nigsbr%C3%BCcker+Str.+96,+Dresden/@51.0809242,13.7608548"
    },
    {
      "name": "Emma Metzler",
      "address": "Schaumainkai 17",
      "zip": "60594",
      "city": "Frankfurt am Main",
      "amexId": "457a6f86-22af-4d13-b5f0-9648fe7ac5dd",
      "assumedLocation": {
        "lat": 50.1063156,
        "lon": 8.6805794
      },
      "googleMapsUrl": "https://www.google.com/maps/search/Emma+Metzler,+Schaumainkai+17,+Frankfurt+am+Main/@50.1063156,8.6805794"
    },
    {
      "name": "Entrecôte",
      "address": "Schützenstr. 5",
      "zip": "10117 ",
      "city": "Berlin",
      "amexId": "5f5a3c04-fdfc-4075-8be1-6dbd5f625a13",
      "assumedLocation": {
        "lat": 52.5084694,
        "lon": 13.3913556
      },
      "googleMapsUrl": "https://www.google.com/maps/search/Entrec%C3%B4te,+Sch%C3%BCtzenstr.+5,+Berlin/@52.5084694,13.3913556"
    },
    {
      "name": "Erno’s Bistro",
      "address": "Liebigstraße 15",
      "zip": "60323 ",
      "city": "Frankfurt am Main",
      "amexId": "15fc9e3c-290a-447f-b37e-314b8b2be89e",
      "assumedLocation": {
        "lat": 50.1190979,
        "lon": 8.6659159
      },
      "googleMapsUrl": "https://www.google.com/maps/search/Erno%E2%80%99s+Bistro,+Liebigstra%C3%9Fe+15,+Frankfurt+am+Main/@50.1190979,8.6659159"
    },
    {
      "name": "Forsthaus am See",
      "address": "Am See 1",
      "zip": "82343",
      "city": "Pöcking",
      "amexId": "9684a4be-b8e2-490c-b6e9-8da8609593fa",
      "assumedLocation": {
        "lat": 47.9499286,
        "lon": 11.3062203
      },
      "googleMapsUrl": "https://www.google.com/maps/search/Forsthaus+am+See,+Am+See+1,+P%C3%B6cking/@47.9499286,11.3062203"
    },
    {
      "name": "Frankfurter Botschaft",
      "address": "Westhafenplatz 6-8",
      "zip": "60327 ",
      "city": "Frankfurt am Main",
      "amexId": "da48265d-8fe5-4195-ba9b-4b2cb5a60c39",
      "assumedLocation": {
        "lat": 50.1009082,
        "lon": 8.6638995
      },
      "googleMapsUrl": "https://www.google.com/maps/search/Frankfurter+Botschaft,+Westhafenplatz+6-8,+Frankfurt+am+Main/@50.1009082,8.6638995"
    },
    {
      "name": "Franziska",
      "address": "Hainer Weg 72",
      "zip": "60599 ",
      "city": "Frankfurt am Main",
      "amexId": "eadd6b75-46c8-4cf9-9a05-b6651ff2b04b",
      "assumedLocation": {
        "lat": 50.0972408,
        "lon": 8.6936831
      },
      "googleMapsUrl": "https://www.google.com/maps/search/Franziska,+Hainer+Weg+72,+Frankfurt+am+Main/@50.0972408,8.6936831"
    },
    {
      "name": "Gaffel am Dom",
      "address": "Bahnhofsvorplatz 1",
      "zip": "50667",
      "city": "Köln",
      "amexId": "e6c71c0b-6402-4172-9041-f01b2dc97a41",
      "assumedLocation": {
        "lat": 50.9421508,
        "lon": 6.9572123
      },
      "googleMapsUrl": "https://www.google.com/maps/search/Gaffel+am+Dom,+Bahnhofsvorplatz+1,+K%C3%B6ln/@50.9421508,6.9572123"
    },
    {
      "name": "Gallo Nero",
      "address": "Sierichstr. 46",
      "zip": "22301 ",
      "city": "Hamburg",
      "amexId": "093387df-b55e-45ac-98d4-e3ff43765bd6",
      "assumedLocation": {
        "lat": 53.5811432,
        "lon": 10.0076061
      },
      "googleMapsUrl": "https://www.google.com/maps/search/Gallo+Nero,+Sierichstr.+46,+Hamburg/@53.5811432,10.0076061"
    },
    {
      "name": "Green Beetle",
      "address": "Schumannstraße 9",
      "zip": "81675",
      "city": "München",
      "amexId": "b1f16cb2-3589-450f-a35e-6218b021d5dd",
      "assumedLocation": {
        "lat": 48.14164,
        "lon": 11.60278
      },
      "googleMapsUrl": "https://www.google.com/maps/search/Green+Beetle,+Schumannstra%C3%9Fe+9,+M%C3%BCnchen/@48.14164,11.60278"
    },
    {
      "name": "Grill Royal",
      "address": "Friedrichstr. 105",
      "zip": "10117 ",
      "city": "Berlin",
      "amexId": "8c272775-b54b-46a1-9947-c447a6ab2a66",
      "assumedLocation": {
        "lat": 52.5225601,
        "lon": 13.388382
      },
      "googleMapsUrl": "https://www.google.com/maps/search/Grill+Royal,+Friedrichstr.+105,+Berlin/@52.5225601,13.388382"
    },
    {
      "name": "Grill Royal Hamburg",
      "address": "Ballindamm 17",
      "zip": "20095",
      "city": "Hamburg",
      "amexId": "9b27b0ee-5e06-498d-bff2-beab72c63806",
      "assumedLocation": {
        "lat": 53.5540087,
        "lon": 9.9985835
      },
      "googleMapsUrl": "https://www.google.com/maps/search/Grill+Royal+Hamburg,+Ballindamm+17,+Hamburg/@53.5540087,9.9985835"
    },
    {
      "name": "H'ugo's Pizza-Bar-Lounge",
      "address": "Promenadepl. 3",
      "zip": "80333",
      "city": "München",
      "amexId": "13c8541f-dd06-4518-8808-33aeae7c9b04",
      "assumedLocation": {
        "lat": 48.1396156,
        "lon": 11.5737623
      },
      "googleMapsUrl": "https://www.google.com/maps/search/H%27ugo%27s+Pizza-Bar-Lounge,+Promenadepl.+3,+M%C3%BCnchen/@48.1396156,11.5737623"
    },
    {
      "name": "Hansekai",
      "address": "Jaffestr. 12",
      "zip": "21109",
      "city": "Hamburg",
      "amexId": "d08809aa-d14e-4c29-a62f-ba5596a9390c",
      "assumedLocation": {
        "lat": 53.5084431,
        "lon": 10.0012318
      },
      "googleMapsUrl": "https://www.google.com/maps/search/Hansekai,+Jaffestr.+12,+Hamburg/@53.5084431,10.0012318"
    },
    {
      "name": "Haus Stemberg",
      "address": "Kuhlendahler Str. 295",
      "zip": "42553",
      "city": "Velbert",
      "amexId": "34d93a28-edda-42f5-ade3-cc64cbd6b147",
      "assumedLocation": {
        "lat": 51.331354,
        "lon": 7.09134
      },
      "googleMapsUrl": "https://www.google.com/maps/search/Haus+Stemberg,+Kuhlendahler+Str.+295,+Velbert/@51.331354,7.09134"
    },
    {
      "name": "Horvath",
      "address": "Paul-Lincke-Ufer 44a",
      "zip": "10999 ",
      "city": "Berlin",
      "amexId": "260d28d2-978b-478a-ae2f-87e52f755a2d",
      "assumedLocation": {
        "lat": 52.496461,
        "lon": 13.4208765
      },
      "googleMapsUrl": "https://www.google.com/maps/search/Horvath,+Paul-Lincke-Ufer+44a,+Berlin/@52.496461,13.4208765"
    },
    {
      "name": "JAN",
      "address": "Luisenstrasse 27",
      "zip": "80333",
      "city": "München",
      "amexId": "1439c07f-6fe3-435c-83d2-525b318dc9f7",
      "assumedLocation": {
        "lat": 48.1448259,
        "lon": 11.5628056
      },
      "googleMapsUrl": "https://www.google.com/maps/search/JAN,+Luisenstrasse+27,+M%C3%BCnchen/@48.1448259,11.5628056"
    },
    {
      "name": "Jante",
      "address": "Marienstr. 116",
      "zip": "30171",
      "city": "Hannover",
      "amexId": "08b352f9-af12-42f2-8588-ad117f84a0a9",
      "assumedLocation": {
        "lat": 52.3702519,
        "lon": 9.7607982
      },
      "googleMapsUrl": "https://www.google.com/maps/search/Jante,+Marienstr.+116,+Hannover/@52.3702519,9.7607982"
    },
    {
      "name": "JIM BLOCK",
      "address": "Wilmersdorfer Str. 115 - 118",
      "zip": "10627",
      "city": "Berlin",
      "amexId": "69ebff61-4dab-4352-a9a2-a1204caba32d",
      "assumedLocation": {
        "lat": 52.507339,
        "lon": 13.3067381
      },
      "googleMapsUrl": "https://www.google.com/maps/search/JIM+BLOCK,+Wilmersdorfer+Str.+115+-+118,+Berlin/@52.507339,13.3067381"
    },
    {
      "name": "JIM BLOCK",
      "address": "Budapester Str. 42-50",
      "zip": "10787",
      "city": "Berlin",
      "amexId": "fe138c9a-aa76-4428-ae47-5dfeb88c40db",
      "assumedLocation": {
        "lat": 52.5055098,
        "lon": 13.3381957
      },
      "googleMapsUrl": "https://www.google.com/maps/search/JIM+BLOCK,+Budapester+Str.+42-50,+Berlin/@52.5055098,13.3381957"
    },
    {
      "name": "JIM BLOCK",
      "address": "Jungfernstieg 1-3",
      "zip": "20099",
      "city": "Hamburg",
      "amexId": "2592aee7-0a8d-419f-86ea-29e6c694f014",
      "assumedLocation": {
        "lat": 53.5516391,
        "lon": 9.9942343
      },
      "googleMapsUrl": "https://www.google.com/maps/search/JIM+BLOCK,+Jungfernstieg+1-3,+Hamburg/@53.5516391,9.9942343"
    },
    {
      "name": "JIM BLOCK",
      "address": "Metropolis Haus",
      "zip": "22354",
      "city": "Hamburg",
      "amexId": "4041b38f-9a8d-4d70-834a-e5f787c9f210",
      "assumedLocation": null,
      "googleMapsUrl": "https://www.google.com/maps/search/?api=1&query=JIM+BLOCK,+Metropolis+Haus,+Hamburg&query_place_id=ChIJr9ts6hyPsUcRRRMgugMObcw"
    },
    {
      "name": "JIM BLOCK",
      "address": "Kirchenallee 37",
      "zip": "20099",
      "city": "Hamburg",
      "amexId": "41e9a187-7725-4c70-a4da-f2debf2fd558",
      "assumedLocation": {
        "lat": 53.554651,
        "lon": 10.008647
      },
      "googleMapsUrl": "https://www.google.com/maps/search/JIM+BLOCK,+Kirchenallee+37,+Hamburg/@53.554651,10.008647"
    },
    {
      "name": "JIM BLOCK",
      "address": "Statthalterplatz 5",
      "zip": "22605",
      "city": "Hamburg",
      "amexId": "6573ba53-4b7a-4e7e-b5b0-c04394945155",
      "assumedLocation": {
        "lat": 53.5586,
        "lon": 9.88694
      },
      "googleMapsUrl": "https://www.google.com/maps/search/JIM+BLOCK,+Statthalterplatz+5,+Hamburg/@53.5586,9.88694"
    },
    {
      "name": "JIM BLOCK",
      "address": "Wandsbecker Marktstr. 97-99",
      "zip": "22305",
      "city": "Hamburg",
      "amexId": "78725e9a-9269-447b-a742-9307fbf55054",
      "assumedLocation": {
        "lat": 53.5725393,
        "lon": 10.0675089
      },
      "googleMapsUrl": "https://www.google.com/maps/search/JIM+BLOCK,+Wandsbecker+Marktstr.+97-99,+Hamburg/@53.5725393,10.0675089"
    },
    {
      "name": "JIM BLOCK",
      "address": "Fuhlsbüttler Str. 165",
      "zip": "22307",
      "city": "Hamburg",
      "amexId": "c10ec933-1597-4462-83bf-25d1ac9b3e34",
      "assumedLocation": {
        "lat": 53.5931449,
        "lon": 10.0440327
      },
      "googleMapsUrl": "https://www.google.com/maps/search/JIM+BLOCK,+Fuhlsb%C3%BCttler+Str.+165,+Hamburg/@53.5931449,10.0440327"
    },
    {
      "name": "JIM BLOCK",
      "address": "Tangstedter Landstr. 49-51",
      "zip": "22415",
      "city": "Hamburg",
      "amexId": "cdbf4978-0cad-4600-92b8-adcfb6833774",
      "assumedLocation": {
        "lat": 53.6488009,
        "lon": 10.0159384
      },
      "googleMapsUrl": "https://www.google.com/maps/search/JIM+BLOCK,+Tangstedter+Landstr.+49-51,+Hamburg/@53.6488009,10.0159384"
    },
    {
      "name": "JIM BLOCK",
      "address": "Sachsentor 2",
      "zip": "21029",
      "city": "Hamburg",
      "amexId": "fd4312dd-df44-4cde-bf0d-b0ee7fdf8ecf",
      "assumedLocation": {
        "lat": 53.4884856,
        "lon": 10.2112877
      },
      "googleMapsUrl": "https://www.google.com/maps/search/JIM+BLOCK,+Sachsentor+2,+Hamburg/@53.4884856,10.2112877"
    },
    {
      "name": "JIM BLOCK",
      "address": "Georgstr. 35",
      "zip": "30159",
      "city": "Hannover",
      "amexId": "5b04283e-e3c0-4206-84b1-3e183eb4b1fa",
      "assumedLocation": {
        "lat": 52.374144,
        "lon": 9.739356
      },
      "googleMapsUrl": "https://www.google.com/maps/search/JIM+BLOCK,+Georgstr.+35,+Hannover/@52.374144,9.739356"
    },
    {
      "name": "JIM BLOCK Altona",
      "address": "Neue Große Bergstr. 18",
      "zip": "22767",
      "city": "Hamburg",
      "amexId": "65ff7e46-1437-42d3-8dd4-97cd82d501d0",
      "assumedLocation": {
        "lat": 53.551423,
        "lon": 9.939356
      },
      "googleMapsUrl": "https://www.google.com/maps/search/JIM+BLOCK+Altona,+Neue+Gro%C3%9Fe+Bergstr.+18,+Hamburg/@53.551423,9.939356"
    },
    {
      "name": "Jonas im Templer",
      "address": "Holzstrasse 10",
      "zip": "55116",
      "city": "Mainz",
      "amexId": "5ebf7d24-a5a3-4dcb-b6b8-b384dd67c1b1",
      "assumedLocation": {
        "lat": 49.9962082,
        "lon": 8.2768877
      },
      "googleMapsUrl": "https://www.google.com/maps/search/Jonas+im+Templer,+Holzstrasse+10,+Mainz/@49.9962082,8.2768877"
    },
    {
      "name": "Käfer Schänke im Stammhaus",
      "address": "Prinzregentenstraße 73/1. Etage",
      "zip": "81675",
      "city": "München",
      "amexId": "9016d92e-10f1-4154-805c-2e96c29096cf",
      "assumedLocation": {
        "lat": 48.1405915,
        "lon": 11.6020464
      },
      "googleMapsUrl": "https://www.google.com/maps/search/K%C3%A4fer+Sch%C3%A4nke+im+Stammhaus,+Prinzregentenstra%C3%9Fe+73%2F1.+Etage,+M%C3%BCnchen/@48.1405915,11.6020464"
    },
    {
      "name": "Kin Dee",
      "address": "Lützowstraße 81",
      "zip": "10785",
      "city": "Berlin",
      "amexId": "3a2767cc-078f-4458-a46f-ac3125838574",
      "assumedLocation": {
        "lat": 52.5035188,
        "lon": 13.3623701
      },
      "googleMapsUrl": "https://www.google.com/maps/search/Kin+Dee,+L%C3%BCtzowstra%C3%9Fe+81,+Berlin/@52.5035188,13.3623701"
    },
    {
      "name": "KOI",
      "address": "Wittelsbacherplatz 1",
      "zip": "80333",
      "city": "München",
      "amexId": "b93dbba5-6de4-4448-aa32-16510132a981",
      "assumedLocation": {
        "lat": 48.143165,
        "lon": 11.575507
      },
      "googleMapsUrl": "https://www.google.com/maps/search/KOI,+Wittelsbacherplatz+1,+M%C3%BCnchen/@48.143165,11.575507"
    },
    {
      "name": "L´Unico",
      "address": "Mendelssohnstraße 83",
      "zip": "60325 ",
      "city": "Frankfurt am Main",
      "amexId": "e41ae740-0764-491c-904c-5f09c37cdbe8",
      "assumedLocation": {
        "lat": 50.1181596,
        "lon": 8.6590224
      },
      "googleMapsUrl": "https://www.google.com/maps/search/L%C2%B4Unico,+Mendelssohnstra%C3%9Fe+83,+Frankfurt+am+Main/@50.1181596,8.6590224"
    },
    {
      "name": "L’Arome Restaurant",
      "address": "Neue Mainzer Str. 20",
      "zip": "60311",
      "city": "Frankfurt am Main",
      "amexId": "b39ca738-8c8d-470c-a1d3-74f1cfc0c210",
      "assumedLocation": {
        "lat": 50.1090208,
        "lon": 8.6750814
      },
      "googleMapsUrl": "https://www.google.com/maps/search/L%E2%80%99Arome+Restaurant,+Neue+Mainzer+Str.+20,+Frankfurt+am+Main/@50.1090208,8.6750814"
    },
    {
      "name": "La cuisine Rademacher",
      "address": "Dellbrücker Hauptstr. 176",
      "zip": "51069",
      "city": "Köln",
      "amexId": "6af93d89-e14f-410c-922a-4978b15ce59d",
      "assumedLocation": {
        "lat": 50.9802842,
        "lon": 7.0690432
      },
      "googleMapsUrl": "https://www.google.com/maps/search/La+cuisine+Rademacher,+Dellbr%C3%BCcker+Hauptstr.+176,+K%C3%B6ln/@50.9802842,7.0690432"
    },
    {
      "name": "Le Petit Royal",
      "address": "Grolmannstr. 59",
      "zip": "10623",
      "city": "Berlin",
      "amexId": "024dcde0-a287-4310-b713-50449083d112",
      "assumedLocation": {
        "lat": 52.5087263,
        "lon": 13.320361
      },
      "googleMapsUrl": "https://www.google.com/maps/search/Le+Petit+Royal,+Grolmannstr.+59,+Berlin/@52.5087263,13.320361"
    },
    {
      "name": "Lohninger",
      "address": "Schweizer Str. 1",
      "zip": "60594 ",
      "city": "Frankfurt am Main",
      "amexId": "16666baa-e9a7-4fd1-811c-e33c48e2a2de",
      "assumedLocation": {
        "lat": 50.10534,
        "lon": 8.6782
      },
      "googleMapsUrl": "https://www.google.com/maps/search/Lohninger,+Schweizer+Str.+1,+Frankfurt+am+Main/@50.10534,8.6782"
    },
    {
      "name": "maiBeck",
      "address": "Am Frankenturm 5",
      "zip": "50667",
      "city": "Köln",
      "amexId": "88ba4082-de6b-4ed8-b062-bbb8e6dec5a6",
      "assumedLocation": {
        "lat": 50.9402778,
        "lon": 6.9616667
      },
      "googleMapsUrl": "https://www.google.com/maps/search/maiBeck,+Am+Frankenturm+5,+K%C3%B6ln/@50.9402778,6.9616667"
    },
    {
      "name": "Miller & Carter Frankfurt Alte Oper",
      "address": "Hochstr. 46",
      "zip": "60313",
      "city": "Frankfurt am Main",
      "amexId": "ad974407-6971-4bb4-9e27-937ddb2f8c42",
      "assumedLocation": {
        "lat": 50.1156961,
        "lon": 8.6734561
      },
      "googleMapsUrl": "https://www.google.com/maps/search/Miller+%26+Carter+Frankfurt+Alte+Oper,+Hochstr.+46,+Frankfurt+am+Main/@50.1156961,8.6734561"
    },
    {
      "name": "Moriki",
      "address": "Taunusanlage 12",
      "zip": "60325 ",
      "city": "Frankfurt am Main",
      "amexId": "2d13337a-35d8-473d-a289-59194c607d07",
      "assumedLocation": {
        "lat": 50.1140775,
        "lon": 8.6690833
      },
      "googleMapsUrl": "https://www.google.com/maps/search/Moriki,+Taunusanlage+12,+Frankfurt+am+Main/@50.1140775,8.6690833"
    },
    {
      "name": "Nobelhart & Schmutzig",
      "address": "Friedrichstr. 218",
      "zip": "10969 ",
      "city": "Berlin",
      "amexId": "2cb99ced-7796-4288-b63e-ff3170a2eb58",
      "assumedLocation": {
        "lat": 52.5053369,
        "lon": 13.3904178
      },
      "googleMapsUrl": "https://www.google.com/maps/search/Nobelhart+%26+Schmutzig,+Friedrichstr.+218,+Berlin/@52.5053369,13.3904178"
    },
    {
      "name": "Opus V",
      "address": "O5 9-12",
      "zip": "68161 ",
      "city": "Mannheim",
      "amexId": "bea8eae6-cf6f-4915-9006-4d75e4698964",
      "assumedLocation": {
        "lat": 49.4858659,
        "lon": 8.4699353
      },
      "googleMapsUrl": "https://www.google.com/maps/search/Opus+V,+O5+9-12,+Mannheim/@49.4858659,8.4699353"
    },
    {
      "name": "OX Royal",
      "address": "Uferstraße 16",
      "zip": "50996 ",
      "city": "Köln",
      "amexId": "f639036f-e089-42bb-9713-2e16ebc01773",
      "assumedLocation": {
        "lat": 50.8921838,
        "lon": 7.0022679
      },
      "googleMapsUrl": "https://www.google.com/maps/search/OX+Royal,+Uferstra%C3%9Fe+16,+K%C3%B6ln/@50.8921838,7.0022679"
    },
    {
      "name": "Restaurant Inten.se",
      "address": "Weinstraße 31",
      "zip": "67157",
      "city": "Wachenheim an der Weinstraße",
      "amexId": "22b4f8f2-00ff-48d6-8fb0-17bfcb828c5f",
      "assumedLocation": {
        "lat": 49.4385795,
        "lon": 8.1819967
      },
      "googleMapsUrl": "https://www.google.com/maps/search/Restaurant+Inten.se,+Weinstra%C3%9Fe+31,+Wachenheim+an+der+Weinstra%C3%9Fe/@49.4385795,8.1819967"
    },
    {
      "name": "Restaurant Medici",
      "address": "Weissadlergasse 2",
      "zip": "60311",
      "city": "Frankfurt am Main",
      "amexId": "054eccb0-db03-411d-9bfe-4ce47c76cb60",
      "assumedLocation": {
        "lat": 50.1119131,
        "lon": 8.6787455
      },
      "googleMapsUrl": "https://www.google.com/maps/search/Restaurant+Medici,+Weissadlergasse+2,+Frankfurt+am+Main/@50.1119131,8.6787455"
    },
    {
      "name": "Restaurant Osterberger",
      "address": "Elisabethkirchstraße 2",
      "zip": "10115",
      "city": "Berlin",
      "amexId": "4997c48c-11f6-4089-8261-44bb2ddbf832",
      "assumedLocation": {
        "lat": 52.5329824,
        "lon": 13.3978575
      },
      "googleMapsUrl": "https://www.google.com/maps/search/Restaurant+Osterberger,+Elisabethkirchstra%C3%9Fe+2,+Berlin/@52.5329824,13.3978575"
    },
    {
      "name": "Restaurant Pietsch",
      "address": "Breite Strasse 53a",
      "zip": "38855",
      "city": "Wernigerode",
      "amexId": "054f009f-6783-4886-9ea9-9a21dbace8d6",
      "assumedLocation": {
        "lat": 51.835296,
        "lon": 10.7890553
      },
      "googleMapsUrl": "https://www.google.com/maps/search/Restaurant+Pietsch,+Breite+Strasse+53a,+Wernigerode/@51.835296,10.7890553"
    },
    {
      "name": "Restaurant Rosin",
      "address": "Hervester Str. 18",
      "zip": "46286",
      "city": "Dorsten",
      "amexId": "bfb079d2-1c92-476e-b3fd-dccd02007bc2",
      "assumedLocation": {
        "lat": 51.719172,
        "lon": 7.013099
      },
      "googleMapsUrl": "https://www.google.com/maps/search/Restaurant+Rosin,+Hervester+Str.+18,+Dorsten/@51.719172,7.013099"
    },
    {
      "name": "Restaurant Schote",
      "address": "Rüttenscheider Str. 62",
      "zip": "45130 ",
      "city": "Essen",
      "amexId": "0ebf6ad2-440a-4c51-9dbf-695adb58a2bf",
      "assumedLocation": {
        "lat": 51.4380776,
        "lon": 7.0051899
      },
      "googleMapsUrl": "https://www.google.com/maps/search/Restaurant+Schote,+R%C3%BCttenscheider+Str.+62,+Essen/@51.4380776,7.0051899"
    },
    {
      "name": "Restaurant Showroom",
      "address": "Lilienstr. 6",
      "zip": "81669",
      "city": "München",
      "amexId": "08a353ab-2ad0-4244-bde8-ab658fdfeb1f",
      "assumedLocation": {
        "lat": 48.1305459,
        "lon": 11.5873261
      },
      "googleMapsUrl": "https://www.google.com/maps/search/Restaurant+Showroom,+Lilienstr.+6,+M%C3%BCnchen/@48.1305459,11.5873261"
    },
    {
      "name": "Restaurant Tim Raue",
      "address": "Rudi-Dutschke-Str. 26",
      "zip": "10969 ",
      "city": "Berlin",
      "amexId": "b557da4f-1d84-4aaf-b3a7-c784d0c4a9f8",
      "assumedLocation": {
        "lat": 52.5068948,
        "lon": 13.3914718
      },
      "googleMapsUrl": "https://www.google.com/maps/search/Restaurant+Tim+Raue,+Rudi-Dutschke-Str.+26,+Berlin/@52.5068948,13.3914718"
    },
    {
      "name": "Restaurant Wielandshöhe",
      "address": "Alte Weinsteige 71",
      "zip": "70597",
      "city": "Stuttgart",
      "amexId": "9083a084-efbd-4785-bc11-c5380b6bf192",
      "assumedLocation": {
        "lat": 48.7573204,
        "lon": 9.1706781
      },
      "googleMapsUrl": "https://www.google.com/maps/search/Restaurant+Wielandsh%C3%B6he,+Alte+Weinsteige+71,+Stuttgart/@48.7573204,9.1706781"
    },
    {
      "name": "Ristorante Botticelli",
      "address": "Sutelstr. 70",
      "zip": "30659",
      "city": "Hannover",
      "amexId": "bd60de5e-c194-4a2e-8b75-ff96f106a539",
      "assumedLocation": {
        "lat": 52.408083,
        "lon": 9.7996335
      },
      "googleMapsUrl": "https://www.google.com/maps/search/Ristorante+Botticelli,+Sutelstr.+70,+Hannover/@52.408083,9.7996335"
    },
    {
      "name": "Riva",
      "address": "Zollhof 11",
      "zip": "40221 ",
      "city": "Düsseldorf",
      "amexId": "debcc914-fb7f-4b15-ba8a-7b4016e42edf",
      "assumedLocation": {
        "lat": 51.2146327,
        "lon": 6.7542851
      },
      "googleMapsUrl": "https://www.google.com/maps/search/Riva,+Zollhof+11,+D%C3%BCsseldorf/@51.2146327,6.7542851"
    },
    {
      "name": "Riva by Tristan Brandt",
      "address": "Poststrasse 8",
      "zip": "75172",
      "city": "Pforzheim",
      "amexId": "611d56f0-b46f-4832-ba06-dcf60e11d2c8",
      "assumedLocation": {
        "lat": 48.8925435,
        "lon": 8.6993253
      },
      "googleMapsUrl": "https://www.google.com/maps/search/Riva+by+Tristan+Brandt,+Poststrasse+8,+Pforzheim/@48.8925435,8.6993253"
    },
    {
      "name": "Rocca Riviera",
      "address": "Wittelsbacherplatz 2",
      "zip": "80333",
      "city": "München",
      "amexId": "c1030b05-a4b1-47df-b9ce-cdf9aed8b0ad",
      "assumedLocation": {
        "lat": 48.1437128,
        "lon": 11.5758009
      },
      "googleMapsUrl": "https://www.google.com/maps/search/Rocca+Riviera,+Wittelsbacherplatz+2,+M%C3%BCnchen/@48.1437128,11.5758009"
    },
    {
      "name": "Sansibar",
      "address": "Hörnumer Str. 80",
      "zip": "25980 ",
      "city": "Rantum (Sylt)",
      "amexId": "11a291dd-b5a3-433f-be9d-423372fe3713",
      "assumedLocation": null,
      "googleMapsUrl": "https://g.page/RestaurantSansibar?share"
    },
    {
      "name": "Schillergarten",
      "address": "Schillerplatz 9",
      "zip": "1309",
      "city": "Dresden",
      "amexId": "57935652-fde9-4fba-9a73-fdae9fcde1a8",
      "assumedLocation": {
        "lat": 51.0525313,
        "lon": 13.8085957
      },
      "googleMapsUrl": "https://www.google.com/maps/search/Schillergarten,+Schillerplatz+9,+Dresden/@51.0525313,13.8085957"
    },
    {
      "name": "Speisemeisterei",
      "address": "Schloss Hohenheim 1 B",
      "zip": "70599",
      "city": "Stuttgart",
      "amexId": "9cae44cf-0757-4e0f-8e39-f3f104a0214b",
      "assumedLocation": {
        "lat": 48.7126919,
        "lon": 9.213714
      },
      "googleMapsUrl": "https://www.google.com/maps/search/Speisemeisterei,+Schloss+Hohenheim+1+B,+Stuttgart/@48.7126919,9.213714"
    },
    {
      "name": "Tantris Restaurant",
      "address": "Johann-Fichte-Str. 7",
      "zip": "80805",
      "city": "München",
      "amexId": "d1c2f6fe-fb51-4251-a0ea-a337091ff54b",
      "assumedLocation": {
        "lat": 48.169796,
        "lon": 11.588339
      },
      "googleMapsUrl": "https://www.google.com/maps/search/Tantris+Restaurant,+Johann-Fichte-Str.+7,+M%C3%BCnchen/@48.169796,11.588339"
    },
    {
      "name": "Tarantella",
      "address": "Stephansplatz 10",
      "zip": "20354 ",
      "city": "Hamburg",
      "amexId": "6365729a-e9cc-46b5-b854-81591697342d",
      "assumedLocation": {
        "lat": 53.5586224,
        "lon": 9.9899525
      },
      "googleMapsUrl": "https://www.google.com/maps/search/Tarantella,+Stephansplatz+10,+Hamburg/@53.5586224,9.9899525"
    },
    {
      "name": "The Bless",
      "address": "Hausvogteiplatz 10",
      "zip": "10117",
      "city": "Berlin",
      "amexId": "88527aeb-fe04-4238-bbd0-36ac63ce1312",
      "assumedLocation": {
        "lat": 52.5124086,
        "lon": 13.3967904
      },
      "googleMapsUrl": "https://www.google.com/maps/search/The+Bless,+Hausvogteiplatz+10,+Berlin/@52.5124086,13.3967904"
    },
    {
      "name": "The Grand",
      "address": "Hirtenstr. 4",
      "zip": "10178",
      "city": "Berlin",
      "amexId": "21fbd927-1a68-4d1f-99a2-a8d785caf87a",
      "assumedLocation": {
        "lat": 52.5255205,
        "lon": 13.4125788
      },
      "googleMapsUrl": "https://www.google.com/maps/search/The+Grand,+Hirtenstr.+4,+Berlin/@52.5255205,13.4125788"
    },
    {
      "name": "The Grill im Künstlerhaus",
      "address": "Lenbachplatz 8",
      "zip": "80333",
      "city": "München",
      "amexId": "72c41288-fb66-4947-ba60-adc778d23648",
      "assumedLocation": {
        "lat": 48.1401709,
        "lon": 11.5676221
      },
      "googleMapsUrl": "https://www.google.com/maps/search/The+Grill+im+K%C3%BCnstlerhaus,+Lenbachplatz+8,+M%C3%BCnchen/@48.1401709,11.5676221"
    },
    {
      "name": "The Table Kevin Fehling",
      "address": "Shanghaiallee 15",
      "zip": "20457",
      "city": "Hamburg",
      "amexId": "b9d08e3b-c9c3-4cbd-917c-97f8cec178fb",
      "assumedLocation": {
        "lat": 53.542616,
        "lon": 10.0031225
      },
      "googleMapsUrl": "https://www.google.com/maps/search/The+Table+Kevin+Fehling,+Shanghaiallee+15,+Hamburg/@53.542616,10.0031225"
    },
    {
      "name": "Tomatissimo",
      "address": "Am Tie 15",
      "zip": "33619",
      "city": "Bielefeld",
      "amexId": "8883f462-cf07-430f-8732-7787b81257b2",
      "assumedLocation": {
        "lat": 52.0448491,
        "lon": 8.4401531
      },
      "googleMapsUrl": "https://www.google.com/maps/search/Tomatissimo,+Am+Tie+15,+Bielefeld/@52.0448491,8.4401531"
    },
    {
      "name": "VAI VAI",
      "address": "Grüneburgweg 16",
      "zip": "60322",
      "city": "Frankfurt am Main",
      "amexId": "2873445f-1a84-4612-8457-b1bf6efbac06",
      "assumedLocation": {
        "lat": 50.1212726,
        "lon": 8.6721357
      },
      "googleMapsUrl": "https://www.google.com/maps/search/VAI+VAI,+Gr%C3%BCneburgweg+16,+Frankfurt+am+Main/@50.1212726,8.6721357"
    },
    {
      "name": "Via Monte Napoleone",
      "address": "Bockenheimer Landstraße 55",
      "zip": "60325",
      "city": "Frankfurt am Main",
      "amexId": "087c704f-923e-4621-a2d7-ae250897c006",
      "assumedLocation": {
        "lat": 50.1175119,
        "lon": 8.6636906
      },
      "googleMapsUrl": "https://www.google.com/maps/search/Via+Monte+Napoleone,+Bockenheimer+Landstra%C3%9Fe+55,+Frankfurt+am+Main/@50.1175119,8.6636906"
    },
    {
      "name": "Villa Merton",
      "address": "Am Leonhardsbrunn 12",
      "zip": "60487 ",
      "city": "Frankfurt am Main",
      "amexId": "28d416c4-e739-4655-ae4e-083e5f36387b",
      "assumedLocation": {
        "lat": 50.1272222,
        "lon": 8.6536111
      },
      "googleMapsUrl": "https://www.google.com/maps/search/Villa+Merton,+Am+Leonhardsbrunn+12,+Frankfurt+am+Main/@50.1272222,8.6536111"
    },
    {
      "name": "Vinothek by Geisel",
      "address": "Schützenstr 11",
      "zip": "80335",
      "city": "München",
      "amexId": "8d216ef0-e174-470f-8083-ccfff4a29640",
      "assumedLocation": {
        "lat": 48.1397941,
        "lon": 11.5622524
      },
      "googleMapsUrl": "https://www.google.com/maps/search/Vinothek+by+Geisel,+Sch%C3%BCtzenstr+11,+M%C3%BCnchen/@48.1397941,11.5622524"
    },
    {
      "name": "Votum",
      "address": "Hannah-Arendt-Platz 1",
      "zip": "30159",
      "city": "Hannover",
      "amexId": "11114aff-0bad-47ab-a848-202d8a0682ca",
      "assumedLocation": {
        "lat": 52.3704515,
        "lon": 9.7336926
      },
      "googleMapsUrl": "https://www.google.com/maps/search/Votum,+Hannah-Arendt-Platz+1,+Hannover/@52.3704515,9.7336926"
    },
    {
      "name": "Weinsinn",
      "address": "Weserstr. 4",
      "zip": "60329 ",
      "city": "Frankfurt am Main",
      "amexId": "fd4df409-f90d-40eb-8b7d-57996b78f772",
      "assumedLocation": {
        "lat": 50.1076934,
        "lon": 8.6707278
      },
      "googleMapsUrl": "https://www.google.com/maps/search/Weinsinn,+Weserstr.+4,+Frankfurt+am+Main/@50.1076934,8.6707278"
    },
    {
      "name": "Wirtshaus Gut Kaltenbrunn",
      "address": "Kaltenbrunn 1",
      "zip": "83703 ",
      "city": "Gmund am Tegernsee",
      "amexId": "d4023f1b-9fea-43e0-9521-540a0cbca8ca",
      "assumedLocation": {
        "lat": 47.744782,
        "lon": 11.7226585
      },
      "googleMapsUrl": "https://www.google.com/maps/search/Wirtshaus+Gut+Kaltenbrunn,+Kaltenbrunn+1,+Gmund+am+Tegernsee/@47.744782,11.7226585"
    },
    {
      "name": "Zeitwerk",
      "address": "Breite Str. 53a",
      "zip": "38855",
      "city": "Wernigerode",
      "amexId": "98e38d6a-044d-4688-ba3b-e0588eeaea6b",
      "assumedLocation": {
        "lat": 51.8353829,
        "lon": 10.7891075
      },
      "googleMapsUrl": "https://www.google.com/maps/search/Zeitwerk,+Breite+Str.+53a,+Wernigerode/@51.8353829,10.7891075"
    },
    {
      "name": "Zenzakan",
      "address": "Taunusanlage 15",
      "zip": "60325 ",
      "city": "Frankfurt am Main",
      "amexId": "459965d6-094f-47b8-8c1c-bdbfdadcb983",
      "assumedLocation": {
        "lat": 50.114576,
        "lon": 8.669007
      },
      "googleMapsUrl": "https://www.google.com/maps/search/Zenzakan,+Taunusanlage+15,+Frankfurt+am+Main/@50.114576,8.669007"
    },
    {
      "name": "Zwanzig23",
      "address": "Brunnenstraße 35",
      "zip": "40223",
      "city": "Düsseldorf",
      "amexId": "8eed4f66-5136-4e41-b931-73790dabf33b",
      "assumedLocation": {
        "lat": 51.2061495,
        "lon": 6.7787889
      },
      "googleMapsUrl": "https://www.google.com/maps/search/Zwanzig23,+Brunnenstra%C3%9Fe+35,+D%C3%BCsseldorf/@51.2061495,6.7787889"
    },
    {
      "name": "ZweiSinn Meiers",
      "address": "Äußere Sulzbacher Str. 118",
      "zip": "90491",
      "city": "Nürnberg",
      "amexId": "6c8f30a5-2afd-4302-bfcc-75e14dd74822",
      "assumedLocation": {
        "lat": 49.4641643,
        "lon": 11.1183513
      },
      "googleMapsUrl": "https://www.google.com/maps/search/ZweiSinn+Meiers,+%C3%84u%C3%9Fere+Sulzbacher+Str.+118,+N%C3%BCrnberg/@49.4641643,11.1183513"
    }
  ],
  "GB": [
    {
      "name": "100 Wardour Street",
      "address": "100 Wardour Street",
      "zip": "W1F 0TN",
      "city": "London",
      "amexId": "74e201d3-f171-49c3-aaec-76585b799cf3",
      "assumedLocation": {
        "lat": 51.5135503,
        "lon": -0.1338834
      },
      "googleMapsUrl": "https://www.google.com/maps/search/100+Wardour+Street,+100+Wardour+Street,+London/@51.5135503,-0.1338834"
    },
    {
      "name": "12:51 By Chef James Cochran",
      "address": "107 Upper Street",
      "zip": "N1 1QN",
      "city": "London",
      "amexId": "1cad103e-76c4-4a91-9398-e2dd3efd3e48",
      "assumedLocation": {
        "lat": 51.5379328,
        "lon": -0.1029584
      },
      "googleMapsUrl": "https://www.google.com/maps/search/12%3A51+By+Chef+James+Cochran,+107+Upper+Street,+London/@51.5379328,-0.1029584"
    },
    {
      "name": "14 Hills",
      "address": "14th Floor, 120 Fenchurch Street",
      "zip": "EC3M 5BA",
      "city": "London",
      "amexId": "019ef2f7-e122-420f-bd5c-0c8b74dc5a12",
      "assumedLocation": null,
      "googleMapsUrl": "https://www.google.com/maps/search/?api=1&query=14+Hills,+14th+Floor,+London&query_place_id=ChIJx-Q-bg8FdkgR_t3n42HGBcg"
    },
    {
      "name": "20 Stories",
      "address": "No 1 Spinningfields, 1 Hardman Square, Spinningfields",
      "zip": "M3 3EB",
      "city": "Manchester",
      "amexId": "d6c8c1d4-507c-49b6-a2c6-bdbb712485ec",
      "assumedLocation": {
        "lat": 53.479,
        "lon": -2.2521
      },
      "googleMapsUrl": "https://www.google.com/maps/search/20+Stories,+No+1+Spinningfields%2C+1+Hardman+Square%2C+Spinningfields,+Manchester/@53.479,-2.2521"
    },
    {
      "name": "Akoko",
      "address": "21 Berners St",
      "zip": "W1T 3LP",
      "city": "London",
      "amexId": "56a4acea-3031-403b-9558-0bbaf63328ee",
      "assumedLocation": {
        "lat": 51.5177129,
        "lon": -0.1368354
      },
      "googleMapsUrl": "https://www.google.com/maps/search/Akoko,+21+Berners+St,+London/@51.5177129,-0.1368354"
    },
    {
      "name": "Allegra",
      "address": "The Stratford, 20 International Way, Queen Elizabeth Park",
      "zip": "E20 1FD",
      "city": "London",
      "amexId": "ad45db00-44e4-4a9f-9062-66cc750a8cd1",
      "assumedLocation": {
        "lat": 51.54533,
        "lon": -0.0074444
      },
      "googleMapsUrl": "https://www.google.com/maps/search/Allegra,+The+Stratford%2C+20+International+Way%2C+Queen+Elizabeth+Park,+London/@51.54533,-0.0074444"
    },
    {
      "name": "Amaya",
      "address": "15 Halkin Arcade, Motcomb Street, Belgravia",
      "zip": "SW1X 8JT",
      "city": "London",
      "amexId": "16739786-f003-443c-898e-40c3b0c74e88",
      "assumedLocation": {
        "lat": 51.4991557,
        "lon": -0.1572173
      },
      "googleMapsUrl": "https://www.google.com/maps/search/Amaya,+15+Halkin+Arcade%2C+Motcomb+Street%2C+Belgravia,+London/@51.4991557,-0.1572173"
    },
    {
      "name": "Amazonico",
      "address": "10 Berkeley Square",
      "zip": "W1J 6BR",
      "city": "London",
      "amexId": "516a84f9-0f0d-42e3-96f0-b5aa671e7160",
      "assumedLocation": {
        "lat": 51.5095799,
        "lon": -0.1447093
      },
      "googleMapsUrl": "https://www.google.com/maps/search/Amazonico,+10+Berkeley+Square,+London/@51.5095799,-0.1447093"
    },
    {
      "name": "Angelica",
      "address": "Level 6, Trinity Leeds, 70 Boar Lane",
      "zip": "LS1 6HW",
      "city": "Leeds",
      "amexId": "2b9a4bc2-3bb5-4454-8b9f-a4f1ac223d56",
      "assumedLocation": {
        "lat": 53.796409,
        "lon": -1.5432062
      },
      "googleMapsUrl": "https://www.google.com/maps/search/Angelica,+Level+6%2C+Trinity+Leeds%2C+70+Boar+Lane,+Leeds/@53.796409,-1.5432062"
    },
    {
      "name": "Angler Restaurant",
      "address": "3 South Place",
      "zip": "EC2M 2AF",
      "city": "London",
      "amexId": "fb114eaf-b3d6-4baa-a128-ce2dac901330",
      "assumedLocation": {
        "lat": 51.5190865,
        "lon": -0.0864165
      },
      "googleMapsUrl": "https://www.google.com/maps/search/Angler+Restaurant,+3+South+Place,+London/@51.5190865,-0.0864165"
    },
    {
      "name": "Aqua Kyoto",
      "address": "5th Floor, 240 Regent Street",
      "zip": "W1B 3BR",
      "city": "London",
      "amexId": "3fcd22b8-63f9-4156-8669-a24971b8ec96",
      "assumedLocation": null,
      "googleMapsUrl": "https://www.google.com/maps/search/?api=1&query=Aqua+Kyoto,+5th+Floor,+London&query_place_id=ChIJV9j3pyoFdkgRRpTC0odIxZs"
    },
    {
      "name": "Aqua Nueva",
      "address": "5th Floor, 240 Regent Street",
      "zip": "W1B 3BR",
      "city": "London",
      "amexId": "ca5b8ff2-27cd-42c9-84e5-2da80cb9df1d",
      "assumedLocation": null,
      "googleMapsUrl": "https://www.google.com/maps/search/?api=1&query=Aqua+Nueva,+240+Regent+Street,+London&query_place_id=ChIJV9j3pyoFdkgRGVoRgp9w8To"
    },
    {
      "name": "Aqua Shard",
      "address": "Level 31 The Shard, 31 St. Thomas Street",
      "zip": "SE1 9RY",
      "city": "London",
      "amexId": "f35beaa1-12e3-4308-8ae6-f142ea6c8b5b",
      "assumedLocation": null,
      "googleMapsUrl": "https://www.google.com/maps/search/?api=1&query=Aqua+Shard,+The+Shard,+London&query_place_id=ChIJl5tV7FoDdkgR6UIgihrVM4c"
    },
    {
      "name": "Bagatelle Dover Street",
      "address": "34 Dover St",
      "zip": "W1S 4NG",
      "city": "London",
      "amexId": "f89ea093-a622-4ee9-8679-f81f7dfcbe4d",
      "assumedLocation": {
        "lat": 51.5088065,
        "lon": -0.1428239
      },
      "googleMapsUrl": "https://www.google.com/maps/search/Bagatelle+Dover+Street,+34+Dover+St,+London/@51.5088065,-0.1428239"
    },
    {
      "name": "Balthazar Restaurant",
      "address": "4-6 Russell Street, Covent Garden",
      "zip": "WC2B 5HZ",
      "city": "London",
      "amexId": "d35c7b66-6263-4911-96fc-0e62fdf1431c",
      "assumedLocation": null,
      "googleMapsUrl": "https://www.google.com/maps/search/?api=1&query=Balthazar+Restaurant,+8+Russell+Street,+London&query_place_id=ChIJ9RQEoMsEdkgR7j7ThuwfQ7A"
    },
    {
      "name": "Bar Des Pres",
      "address": "16 Albemarle Street",
      "zip": "W1S 4HW",
      "city": "London",
      "amexId": "a93b8844-6406-4ff1-9b4e-12c6016eeb9d",
      "assumedLocation": {
        "lat": 51.5093262,
        "lon": -0.1418747
      },
      "googleMapsUrl": "https://www.google.com/maps/search/Bar+Des+Pres,+16+Albemarle+Street,+London/@51.5093262,-0.1418747"
    },
    {
      "name": "Barrafina Adelaide St",
      "address": "10 Adelaide St",
      "zip": "WC2N 4HZ",
      "city": "London",
      "amexId": "aa9b2a89-7d1e-476f-ac2d-da81e57fdaa6",
      "assumedLocation": {
        "lat": 51.5094114,
        "lon": -0.1257536
      },
      "googleMapsUrl": "https://www.google.com/maps/search/Barrafina+Adelaide+St,+10+Adelaide+St,+London/@51.5094114,-0.1257536"
    },
    {
      "name": "Benares",
      "address": "12a Berkeley Square, Mayfair",
      "zip": "W1G 6BS",
      "city": "London",
      "amexId": "4cfa5229-dd4d-4d78-9e31-33eb84048e56",
      "assumedLocation": null,
      "googleMapsUrl": "https://www.google.com/maps/search/?api=1&query=Benares,+12+Berkeley+House,+London&query_place_id=ChIJAStk3ysFdkgR8XBBK_CEfuU"
    },
    {
      "name": "Bentleys Oyster Bar & Grill",
      "address": "11-15 Swallow Street",
      "zip": "W1B 4DG",
      "city": "London",
      "amexId": "403d1669-f8e7-4024-a3db-50413029b3e8",
      "assumedLocation": {
        "lat": 51.5095183,
        "lon": -0.1377476
      },
      "googleMapsUrl": "https://www.google.com/maps/search/Bentleys+Oyster+Bar+%26+Grill,+11-15+Swallow+Street,+London/@51.5095183,-0.1377476"
    },
    {
      "name": "Bibi",
      "address": "42  North Audley Street",
      "zip": "W1K 6ZP",
      "city": "London",
      "amexId": "fe7f4621-dbc0-4967-b537-17681107ee67",
      "assumedLocation": {
        "lat": 51.5123823,
        "lon": -0.1533582
      },
      "googleMapsUrl": "https://www.google.com/maps/search/Bibi,+42++North+Audley+Street,+London/@51.5123823,-0.1533582"
    },
    {
      "name": "Bluebird Restaurant",
      "address": "350 Kings Road",
      "zip": "SW3 5UU",
      "city": "London",
      "amexId": "06729780-b94e-4ade-9aad-6ad649bd75f0",
      "assumedLocation": {
        "lat": 51.4849911,
        "lon": -0.1754714
      },
      "googleMapsUrl": "https://www.google.com/maps/search/Bluebird+Restaurant,+350+Kings+Road,+London/@51.4849911,-0.1754714"
    },
    {
      "name": "Bob Bob Ricard",
      "address": "1 Upper James Street, Soho",
      "zip": "W1F 9DF",
      "city": "London",
      "amexId": "9e6874bd-4f12-4b5d-9147-dd38b3e62514",
      "assumedLocation": {
        "lat": 51.51233,
        "lon": -0.1372525
      },
      "googleMapsUrl": "https://www.google.com/maps/search/Bob+Bob+Ricard,+1+Upper+James+Street%2C+Soho,+London/@51.51233,-0.1372525"
    },
    {
      "name": "Brasserie Zedel",
      "address": "20 Sherwood Street",
      "zip": "W1F 7ED",
      "city": "London",
      "amexId": "090f9a2b-43d2-4b53-a166-80842c0afb51",
      "assumedLocation": {
        "lat": 51.5105561,
        "lon": -0.1355974
      },
      "googleMapsUrl": "https://www.google.com/maps/search/Brasserie+Zedel,+20+Sherwood+Street,+London/@51.5105561,-0.1355974"
    },
    {
      "name": "Bread Street Kitchen",
      "address": "10 Bread Street",
      "zip": "EC4M 9AJ",
      "city": "London",
      "amexId": "72afe4b6-5109-44cc-8a66-e1318c195892",
      "assumedLocation": {
        "lat": 51.5133382,
        "lon": -0.0950183
      },
      "googleMapsUrl": "https://www.google.com/maps/search/Bread+Street+Kitchen,+10+Bread+Street,+London/@51.5133382,-0.0950183"
    },
    {
      "name": "Bread Street Kitchen Edinburgh",
      "address": "4 St Andrew Square",
      "zip": "EH2 2BD",
      "city": "Edinburgh",
      "amexId": "d0c127e2-4cff-4d0b-86b2-1117b3454180",
      "assumedLocation": {
        "lat": 55.9535048,
        "lon": -3.1930733
      },
      "googleMapsUrl": "https://www.google.com/maps/search/Bread+Street+Kitchen+Edinburgh,+4+St+Andrew+Square,+Edinburgh/@55.9535048,-3.1930733"
    },
    {
      "name": "Bread Street Kitchen The City",
      "address": "11, 13, 14 South Place",
      "zip": "EC2M 7EB",
      "city": "London",
      "amexId": "37137139-0a3b-4847-9b19-4c78cdc9c133",
      "assumedLocation": {
        "lat": 51.5188858,
        "lon": -0.086931
      },
      "googleMapsUrl": "https://www.google.com/maps/search/Bread+Street+Kitchen+The+City,+11%2C+13%2C+14+South+Place,+London/@51.5188858,-0.086931"
    },
    {
      "name": "Brigadiers",
      "address": "1-5 Bloomberg Arcade",
      "zip": "EC4N 8AR",
      "city": "London",
      "amexId": "bbe50eed-3f98-4b60-965d-e10a391c5d15",
      "assumedLocation": {
        "lat": 51.5126036,
        "lon": -0.0916715
      },
      "googleMapsUrl": "https://www.google.com/maps/search/Brigadiers,+1-5+Bloomberg+Arcade,+London/@51.5126036,-0.0916715"
    },
    {
      "name": "Butlers Wharf Chop House",
      "address": "36e Shad Thames",
      "zip": "SE1 2YE",
      "city": "London",
      "amexId": "cff7a306-0be0-4493-b449-c46a0a899256",
      "assumedLocation": null,
      "googleMapsUrl": "https://www.google.com/maps/search/?api=1&query=Butlers+Wharf+Chop+House,+The+Butlers+Wharf+Building%2C+36E+Shad+Tha,+London&query_place_id=ChIJT1ILM0YDdkgRCPlX7CoOsT0"
    },
    {
      "name": "Scott's Richmond",
      "address": "4 Whittaker Ave, Richmond",
      "zip": "TW9 1EH",
      "city": "London",
      "amexId": "ffa74420-35ff-4bc6-8767-1cbe1c2eb48d",
      "assumedLocation": {
        "lat": 51.4587015,
        "lon": -0.3076425
      },
      "googleMapsUrl": "https://www.google.com/maps/search/Scott%27s+Richmond,+4+Whittaker+Ave%2C+Richmond,+London/@51.4587015,-0.3076425"
    },
    {
      "name": "Chilli Pickle",
      "address": "17 Jubilee Street",
      "zip": "BN1 1GE",
      "city": "Brighton",
      "amexId": "c6524906-1395-4b96-8faa-fbac2c0f2007",
      "assumedLocation": {
        "lat": 50.8246663,
        "lon": -0.1385796
      },
      "googleMapsUrl": "https://www.google.com/maps/search/Chilli+Pickle,+17+Jubilee+Street,+Brighton/@50.8246663,-0.1385796"
    },
    {
      "name": "Chiltern Firehouse",
      "address": "1 Chiltern Street",
      "zip": "W1U 7PA",
      "city": "London",
      "amexId": "7961b8e2-a1cd-4ce2-b143-1e072cbcfdbb",
      "assumedLocation": {
        "lat": 51.5187389,
        "lon": -0.1549693
      },
      "googleMapsUrl": "https://www.google.com/maps/search/Chiltern+Firehouse,+1+Chiltern+Street,+London/@51.5187389,-0.1549693"
    },
    {
      "name": "Chotto Matte",
      "address": "11-13 Frith Street, Soho",
      "zip": "W1D 4RB",
      "city": "London",
      "amexId": "a738e720-49c7-417e-9394-1b933864686e",
      "assumedLocation": {
        "lat": 51.5139565,
        "lon": -0.1315653
      },
      "googleMapsUrl": "https://www.google.com/maps/search/Chotto+Matte,+11-13+Frith+Street%2C+Soho,+London/@51.5139565,-0.1315653"
    },
    {
      "name": "Chutney Mary",
      "address": "73 St. James's Street",
      "zip": "SW1A 1PH",
      "city": "London",
      "amexId": "ef6b7d7d-610a-441a-b2ff-528e12b08539",
      "assumedLocation": {
        "lat": 51.5057071,
        "lon": -0.1387172
      },
      "googleMapsUrl": "https://www.google.com/maps/search/Chutney+Mary,+73+St.+James%27s+Street,+London/@51.5057071,-0.1387172"
    },
    {
      "name": "Clos Maggiore",
      "address": "33 King Street, Covent Garden",
      "zip": "WC2E 8JD",
      "city": "London",
      "amexId": "5159bd84-e23e-4ee3-89b9-92b0061bf64c",
      "assumedLocation": {
        "lat": 51.5116945,
        "lon": -0.1247301
      },
      "googleMapsUrl": "https://www.google.com/maps/search/Clos+Maggiore,+33+King+Street%2C+Covent+Garden,+London/@51.5116945,-0.1247301"
    },
    {
      "name": "Colbert Restaurant",
      "address": "50-52 Sloane Square",
      "zip": "SW1W 8AX",
      "city": "London",
      "amexId": "cb43e0e6-e28d-4fb0-b632-5d0274d3ebad",
      "assumedLocation": {
        "lat": 51.4927777,
        "lon": -0.1565658
      },
      "googleMapsUrl": "https://www.google.com/maps/search/Colbert+Restaurant,+50-52+Sloane+Square,+London/@51.4927777,-0.1565658"
    },
    {
      "name": "Coq d'Argent",
      "address": "No 1 Poultry",
      "zip": "EC2R 8EJ",
      "city": "London",
      "amexId": "79f8ce79-2fd2-4b82-88bc-4110e3ceba03",
      "assumedLocation": null,
      "googleMapsUrl": "https://www.google.com/maps/search/?api=1&query=Coq+D%27+Argent,+No+1+Poultry,+London&query_place_id=ChIJkf2A4FQDdkgRxc5itXih0yw"
    },
    {
      "name": "Corrigans Of Mayfair",
      "address": "28 Upper Grosvenor Street",
      "zip": "W1K 7EH",
      "city": "London",
      "amexId": "e8077f64-2372-46f0-8687-79725a324091",
      "assumedLocation": {
        "lat": 51.5099972,
        "lon": -0.1554
      },
      "googleMapsUrl": "https://www.google.com/maps/search/Corrigans+Of+Mayfair,+28+Upper+Grosvenor+Street,+London/@51.5099972,-0.1554"
    },
    {
      "name": "Coya Mayfair",
      "address": "Newton House 118 Piccadilly",
      "zip": "W1J 7NW",
      "city": "London",
      "amexId": "ea77dda0-9c74-42cd-aac2-016b9b279a1d",
      "assumedLocation": null,
      "googleMapsUrl": "https://www.google.com/maps/search/?api=1&query=Coya,+Newton+House+118+Piccadilly,+London&query_place_id=ChIJdS2rWC8FdkgR0OwXxtyU8UI"
    },
    {
      "name": "Crafthouse",
      "address": "Level 5 Trinity Leeds, 70 Boar Lane",
      "zip": "LS1 6HW",
      "city": "Leeds",
      "amexId": "52c849ff-4f18-4914-b218-23b18875f8f2",
      "assumedLocation": {
        "lat": 53.7963633,
        "lon": -1.5432144
      },
      "googleMapsUrl": "https://www.google.com/maps/search/Crafthouse,+Level+5+Trinity+Leeds%2C+70+Boar+Lane,+Leeds/@53.7963633,-1.5432144"
    },
    {
      "name": "CUT at 45 Park Lane",
      "address": "45 Park Lane",
      "zip": "W1K 1PN",
      "city": "London",
      "amexId": "ae7f3d9b-9209-4e42-b564-cb97888e1007",
      "assumedLocation": {
        "lat": 51.5064243,
        "lon": -0.1516565
      },
      "googleMapsUrl": "https://www.google.com/maps/search/CUT+at+45+Park+Lane,+45+Park+Lane,+London/@51.5064243,-0.1516565"
    },
    {
      "name": "Orelle",
      "address": "103 Colmore Row",
      "zip": "B33AG",
      "city": "Birmingham",
      "amexId": "26a6a6a9-af7e-4128-895d-3b752c9f3a37",
      "assumedLocation": {
        "lat": 52.4807016,
        "lon": -1.9015186
      },
      "googleMapsUrl": "https://www.google.com/maps/search/Orelle,+103+Colmore+Row,+Birmingham/@52.4807016,-1.9015186"
    },
    {
      "name": "Daffodil Mulligan",
      "address": "70-74 City Rd, Old Street",
      "zip": "EC1Y 2BJ",
      "city": "London",
      "amexId": "95dc1c2e-c0d5-4437-964f-c41214658688",
      "assumedLocation": null,
      "googleMapsUrl": "https://www.google.com/maps/search/?api=1&query=Daffodil+Mulligan,+70+74+City+Road,+London&query_place_id=ChIJbfLwYM0ddkgRGq26y2_L20E"
    },
    {
      "name": "Daphnes",
      "address": "112 Draycott Avenue",
      "zip": "SW3 3AE",
      "city": "London",
      "amexId": "1b1878f0-27b4-49fb-ac60-450190aee36b",
      "assumedLocation": {
        "lat": 51.4936729,
        "lon": -0.167754
      },
      "googleMapsUrl": "https://www.google.com/maps/search/Daphnes,+112+Draycott+Avenue,+London/@51.4936729,-0.167754"
    },
    {
      "name": "Duck & Waffle",
      "address": "110 Bishopsgate",
      "zip": "EC2N 4AY",
      "city": "London",
      "amexId": "21995ae9-b606-447c-9731-eae2d96283bb",
      "assumedLocation": {
        "lat": 51.5162529,
        "lon": -0.0811942
      },
      "googleMapsUrl": "https://www.google.com/maps/search/Duck+%26+Waffle,+110+Bishopsgate,+London/@51.5162529,-0.0811942"
    },
    {
      "name": "Elliot's - Borough Market",
      "address": "12 Stoney St",
      "zip": "SE1 9AD",
      "city": "London",
      "amexId": "cf43ec3d-802b-4737-a093-847124b87a4e",
      "assumedLocation": {
        "lat": 51.5056664,
        "lon": -0.0915962
      },
      "googleMapsUrl": "https://www.google.com/maps/search/Elliot%27s+-+Borough+Market,+12+Stoney+St,+London/@51.5056664,-0.0915962"
    },
    {
      "name": "Erst",
      "address": "9 Murray St Ancoats, Manchester",
      "zip": "M4 6HS",
      "city": "Manchester",
      "amexId": "38844885-0ff8-49aa-9aa0-1bcf8b783f1b",
      "assumedLocation": {
        "lat": 53.4843996,
        "lon": -2.2274914
      },
      "googleMapsUrl": "https://www.google.com/maps/search/Erst,+9+Murray+St+Ancoats%2C+Manchester,+Manchester/@53.4843996,-2.2274914"
    },
    {
      "name": "Fallow Restaurant",
      "address": "52 Haymarket",
      "zip": "SW1Y 4RP",
      "city": "London",
      "amexId": "76c929cc-5961-4246-99c2-119911d9e500",
      "assumedLocation": null,
      "googleMapsUrl": "https://goo.gl/maps/Goy8dDy3YLxNDPyY9"
    },
    {
      "name": "Fischers Restaurant",
      "address": "50 Marylebone High Street",
      "zip": "W1U 5HN",
      "city": "London",
      "amexId": "7962e9d1-dfee-464c-a655-2116f72e55fc",
      "assumedLocation": {
        "lat": 51.5216222,
        "lon": -0.1516157
      },
      "googleMapsUrl": "https://www.google.com/maps/search/Fischers+Restaurant,+50+Marylebone+High+Street,+London/@51.5216222,-0.1516157"
    },
    {
      "name": "Fish Market",
      "address": "16B New Street",
      "zip": "EC2M 4TR",
      "city": "London",
      "amexId": "88ccd9ab-0f4c-4639-bb30-fdae6a6ec7d9",
      "assumedLocation": {
        "lat": 51.5172816,
        "lon": -0.0798414
      },
      "googleMapsUrl": "https://www.google.com/maps/search/Fish+Market,+16B+New+Street,+London/@51.5172816,-0.0798414"
    },
    {
      "name": "Fiume",
      "address": "Circus West, Battersea Power Station",
      "zip": "SW8 5BN",
      "city": "London",
      "amexId": "7c4df566-8cae-4286-82a6-f25deba9573d",
      "assumedLocation": null,
      "googleMapsUrl": "https://goo.gl/maps/MrQVBydiBbmEFiM68"
    },
    {
      "name": "Frog By Adam Handling",
      "address": "34-35 Southampton Street",
      "zip": "WC2E 7HG",
      "city": "London",
      "amexId": "573a8ccb-ab38-40df-a99a-127b0e20c479",
      "assumedLocation": {
        "lat": 51.5108084,
        "lon": -0.1220355
      },
      "googleMapsUrl": "https://www.google.com/maps/search/Frog+By+Adam+Handling,+34-35+Southampton+Street,+London/@51.5108084,-0.1220355"
    },
    {
      "name": "Gaucho 02",
      "address": "The O2, Peninsula Square, Greenwich",
      "zip": "SE10 0DX",
      "city": "London",
      "amexId": "21b1e249-500b-4287-a441-6aae91508fd9",
      "assumedLocation": {
        "lat": 51.503038,
        "lon": 0.0031543
      },
      "googleMapsUrl": "https://www.google.com/maps/search/Gaucho+02,+The+O2%2C+Peninsula+Square%2C+Greenwich,+London/@51.503038,0.0031543"
    },
    {
      "name": "Gaucho Glasgow",
      "address": "7 West Nile Street",
      "zip": "G1 2PR",
      "city": "Glasgow",
      "amexId": "5b14a7ff-b460-470f-8163-506cb12ff07f",
      "assumedLocation": {
        "lat": 55.8607767,
        "lon": -4.2555839
      },
      "googleMapsUrl": "https://www.google.com/maps/search/Gaucho+Glasgow,+7+West+Nile+Street,+Glasgow/@55.8607767,-4.2555839"
    },
    {
      "name": "Gaucho Newcastle",
      "address": "2-6 Market Street",
      "zip": "NE1 6JF",
      "city": "Newcastle",
      "amexId": "f35d8426-d3a8-4d71-9b22-1001bd6feb0f",
      "assumedLocation": null,
      "googleMapsUrl": "https://www.google.com/maps/search/?api=1&query=Gaucho+Newcastle,+2-6+Market+Street,+Newcastle&query_place_id=ChIJJb0uqWxxfkgR3SMNwDbK-ZI"
    },
    {
      "name": "German Gymnasium",
      "address": "Kings Blvd, Kings Cross",
      "zip": "N1C 4BU",
      "city": "London",
      "amexId": "5ab7196c-6983-45fa-b09b-120534fe15b7",
      "assumedLocation": {
        "lat": 51.5324245,
        "lon": -0.1252667
      },
      "googleMapsUrl": "https://www.google.com/maps/search/German+Gymnasium,+Kings+Blvd%2C+Kings+Cross,+London/@51.5324245,-0.1252667"
    },
    {
      "name": "Lucky Cat Manchester",
      "address": "100 King Street",
      "zip": "M2 4WU",
      "city": "Manchester",
      "amexId": "d153627e-756d-44fa-ade0-61630abd3ac9",
      "assumedLocation": {
        "lat": 53.4805854,
        "lon": -2.2423621
      },
      "googleMapsUrl": "https://www.google.com/maps/search/Lucky+Cat+Manchester,+100+King+Street,+Manchester/@53.4805854,-2.2423621"
    },
    {
      "name": "Gordon Ramsay Bar & Grill Mayfair",
      "address": "10-13 Grosvenor Square",
      "zip": "W1K 6JP",
      "city": "London",
      "amexId": "67803a01-dc68-4dc9-83ee-920d3e5e6220",
      "assumedLocation": {
        "lat": 51.5123761,
        "lon": -0.1510207
      },
      "googleMapsUrl": "https://www.google.com/maps/search/Gordon+Ramsay+Bar+%26+Grill+Mayfair,+10-13+Grosvenor+Square,+London/@51.5123761,-0.1510207"
    },
    {
      "name": "Gordon Ramsay Bar & Grill Park Walk",
      "address": "11 Park Walk, Chelsea",
      "zip": "SW10 0AJ",
      "city": "London",
      "amexId": "898ce30b-1ccb-4946-8368-434f7bb399b2",
      "assumedLocation": {
        "lat": 51.4859823,
        "lon": -0.1798695
      },
      "googleMapsUrl": "https://www.google.com/maps/search/Gordon+Ramsay+Bar+%26+Grill+Park+Walk,+11+Park+Walk%2C+Chelsea,+London/@51.4859823,-0.1798695"
    },
    {
      "name": "Gymkhana",
      "address": "42 Albemarle Street",
      "zip": "W1S 4JH",
      "city": "London",
      "amexId": "491094d6-23a3-4e89-9eb2-39d7894270b7",
      "assumedLocation": {
        "lat": 51.5084912,
        "lon": -0.1414724
      },
      "googleMapsUrl": "https://www.google.com/maps/search/Gymkhana,+42+Albemarle+Street,+London/@51.5084912,-0.1414724"
    },
    {
      "name": "Hakkasan Hanway Place",
      "address": "8 Hanway Place, Fitzrovia",
      "zip": "W1T 1HD",
      "city": "London",
      "amexId": "a647538e-f061-4723-b657-46fe48eb3910",
      "assumedLocation": {
        "lat": 51.517165,
        "lon": -0.1316582
      },
      "googleMapsUrl": "https://www.google.com/maps/search/Hakkasan+Hanway+Place,+8+Hanway+Place%2C+Fitzrovia,+London/@51.517165,-0.1316582"
    },
    {
      "name": "Hakkasan Mayfair",
      "address": "17 Bruton Street",
      "zip": "W1J 6QB",
      "city": "London",
      "amexId": "ffc3d296-5b96-431b-969c-6198a47513b4",
      "assumedLocation": {
        "lat": 51.5101542,
        "lon": -0.144863
      },
      "googleMapsUrl": "https://www.google.com/maps/search/Hakkasan+Mayfair,+17+Bruton+Street,+London/@51.5101542,-0.144863"
    },
    {
      "name": "Hawksmoor Edinburgh",
      "address": "23 W Register St",
      "zip": "EH2 2AA",
      "city": "Edinburgh",
      "amexId": "0e6344a4-98f1-4d3f-9b96-b17b3108985f",
      "assumedLocation": {
        "lat": 55.9539045,
        "lon": -3.1911908
      },
      "googleMapsUrl": "https://www.google.com/maps/search/Hawksmoor+Edinburgh,+23+W+Register+St,+Edinburgh/@55.9539045,-3.1911908"
    },
    {
      "name": "Hawksmoor Air Street",
      "address": "5A Air Street",
      "zip": "W1J 0AD",
      "city": "London",
      "amexId": "326028d5-d7cb-47a4-8891-586e147838cc",
      "assumedLocation": {
        "lat": 51.5097064,
        "lon": -0.1362074
      },
      "googleMapsUrl": "https://www.google.com/maps/search/Hawksmoor+Air+Street,+5A+Air+Street,+London/@51.5097064,-0.1362074"
    },
    {
      "name": "Hawksmoor Liverpool",
      "address": "India Buildings, 8 Brunswick St,",
      "zip": "L2 0PL",
      "city": "Liverpool",
      "amexId": "63e2d1ea-4172-499a-b720-120eba12504b",
      "assumedLocation": null,
      "googleMapsUrl": "https://www.google.com/maps/search/?api=1&query=Hawksmoor+Liverpool,+India+Buildings%2C+8+Brunswick+St%2C,+Liverpool&query_place_id=ChIJv_p5b1Ihe0gR9p_HMPzTkTA"
    },
    {
      "name": "Hawksmoor Manchester",
      "address": "184-186 Deansgate",
      "zip": "M3 3WB",
      "city": "Manchester",
      "amexId": "a9e0afe6-28e7-465c-a6e1-52dc28667467",
      "assumedLocation": {
        "lat": 53.4789857,
        "lon": -2.2493265
      },
      "googleMapsUrl": "https://www.google.com/maps/search/Hawksmoor+Manchester,+184-186+Deansgate,+Manchester/@53.4789857,-2.2493265"
    },
    {
      "name": "Heddon Street Kitchen",
      "address": "3-9 Heddon St",
      "zip": "W1B 4BE",
      "city": "London",
      "amexId": "25736b1f-25d8-4c66-83b8-1b0f9cbfc63f",
      "assumedLocation": {
        "lat": 51.5107453,
        "lon": -0.139322
      },
      "googleMapsUrl": "https://www.google.com/maps/search/Heddon+Street+Kitchen,+3-9+Heddon+St,+London/@51.5107453,-0.139322"
    },
    {
      "name": "Helene Darroze At The Connaught",
      "address": "16 Carlos Place, Mayfair",
      "zip": "W1K 2AL",
      "city": "London",
      "amexId": "c857f88d-835e-4b35-aaf0-be32e7bdca83",
      "assumedLocation": {
        "lat": 51.5101843,
        "lon": -0.1497608
      },
      "googleMapsUrl": "https://www.google.com/maps/search/Helene+Darroze+At+The+Connaught,+16+Carlos+Place%2C+Mayfair,+London/@51.5101843,-0.1497608"
    },
    {
      "name": "Hutong",
      "address": "Level 33 The Shard, 31 St. Thomas Street",
      "zip": "SE1 9RY",
      "city": "London",
      "amexId": "312e9f51-5d92-4d6b-b83c-fe6139cc67c6",
      "assumedLocation": null,
      "googleMapsUrl": "https://www.google.com/maps/search/?api=1&query=Hutong,+The+Shard,+London&query_place_id=ChIJE1j0oVADdkgRDVQQ49MtNE4"
    },
    {
      "name": "Ikoyi",
      "address": "180 The Strand, Temple",
      "zip": "WC2R 1EA",
      "city": "London",
      "amexId": "0dbd7796-0e18-4fe1-a33c-fb979214e3d2",
      "assumedLocation": {
        "lat": 51.5124247,
        "lon": -0.1150554
      },
      "googleMapsUrl": "https://www.google.com/maps/search/Ikoyi,+180+The+Strand%2C+Temple,+London/@51.5124247,-0.1150554"
    },
    {
      "name": "Issho",
      "address": "Victoria Gate, 3rd Floor Rooftop",
      "zip": "LS2 7AU",
      "city": "Leeds",
      "amexId": "bfcaae78-1ab8-4d9d-9407-66766eca87bc",
      "assumedLocation": {
        "lat": 53.7978748,
        "lon": -1.5386171
      },
      "googleMapsUrl": "https://www.google.com/maps/search/Issho,+Victoria+Gate%2C+3rd+Floor+Rooftop,+Leeds/@53.7978748,-1.5386171"
    },
    {
      "name": "J Sheekey",
      "address": "28-32 St Martin's Court",
      "zip": "WC2N 4AL",
      "city": "London",
      "amexId": "6404477b-1a27-4247-8210-7bf5018a815a",
      "assumedLocation": {
        "lat": 51.5108984,
        "lon": -0.1278404
      },
      "googleMapsUrl": "https://www.google.com/maps/search/J+Sheekey,+28-32+St+Martin%27s+Court,+London/@51.5108984,-0.1278404"
    },
    {
      "name": "Berenjak Soho",
      "address": "27 Romilly Street",
      "zip": "W1D 5AL",
      "city": "London",
      "amexId": "702f2f3c-b546-4697-b1a5-898ae0c90c69",
      "assumedLocation": {
        "lat": 51.5130327,
        "lon": -0.1307591
      },
      "googleMapsUrl": "https://www.google.com/maps/search/Berenjak+Soho,+27+Romilly+Street,+London/@51.5130327,-0.1307591"
    },
    {
      "name": "Kahani restaurant",
      "address": "1 Wilbraham Place",
      "zip": "SW1X 9AE",
      "city": "London",
      "amexId": "77389242-99aa-46d1-9455-e40c3580169f",
      "assumedLocation": {
        "lat": 51.4941731,
        "lon": -0.1574486
      },
      "googleMapsUrl": "https://www.google.com/maps/search/Kahani+restaurant,+1+Wilbraham+Place,+London/@51.4941731,-0.1574486"
    },
    {
      "name": "Kintsu",
      "address": "11a North Hill",
      "zip": "CO1 1DZ",
      "city": "Colchester",
      "amexId": "fb996ccc-c8f0-4c3b-af3d-dea9e26acc2f",
      "assumedLocation": {
        "lat": 51.891244,
        "lon": 0.8970037
      },
      "googleMapsUrl": "https://www.google.com/maps/search/Kintsu,+11a+North+Hill,+Colchester/@51.891244,0.8970037"
    },
    {
      "name": "Kitty Fishers",
      "address": "10 Shepherd Market",
      "zip": "W1J 7QF",
      "city": "London",
      "amexId": "99c8bbe7-10dc-46cc-a83c-1421548118c9",
      "assumedLocation": {
        "lat": 51.5065412,
        "lon": -0.1461945
      },
      "googleMapsUrl": "https://www.google.com/maps/search/Kitty+Fishers,+10+Shepherd+Market,+London/@51.5065412,-0.1461945"
    },
    {
      "name": "L’Atelier Robuchon",
      "address": "6 Clarges St",
      "zip": "W1J 7EN",
      "city": "London",
      "amexId": "26b89d9d-4f03-46d1-bb19-3cbcf63d0de1",
      "assumedLocation": {
        "lat": 51.5067391,
        "lon": -0.1445053
      },
      "googleMapsUrl": "https://www.google.com/maps/search/L%E2%80%99Atelier+Robuchon,+6+Clarges+St,+London/@51.5067391,-0.1445053"
    },
    {
      "name": "La Petite Maison",
      "address": "53-54 Brook's Mews, Mayfair",
      "zip": "W1K 4EG",
      "city": "London",
      "amexId": "c5208a09-ed31-42e6-8c12-429a0184ce0d",
      "assumedLocation": {
        "lat": 51.5126376,
        "lon": -0.1462626
      },
      "googleMapsUrl": "https://www.google.com/maps/search/La+Petite+Maison,+53-54+Brook%27s+Mews%2C+Mayfair,+London/@51.5126376,-0.1462626"
    },
    {
      "name": "Launceston Place",
      "address": "1A Launceston Place",
      "zip": "W8 5RL",
      "city": "London",
      "amexId": "a7819bc3-d7b8-44d8-a65d-3cdfeafe36f2",
      "assumedLocation": {
        "lat": 51.4991967,
        "lon": -0.1854357
      },
      "googleMapsUrl": "https://www.google.com/maps/search/Launceston+Place,+1A+Launceston+Place,+London/@51.4991967,-0.1854357"
    },
    {
      "name": "Le Pont De La Tour",
      "address": "36D Shad Thames",
      "zip": "SE1 2YE",
      "city": "London",
      "amexId": "e3a836e5-25db-432a-b3b3-9cfd13db2b40",
      "assumedLocation": null,
      "googleMapsUrl": "https://www.google.com/maps/search/?api=1&query=Le+Pont+De+La+Tour,+36D+Shad+Thames+Building+36D,+London&query_place_id=ChIJT1ILM0YDdkgRw6emjIQI8Yo"
    },
    {
      "name": "Lucky Cat",
      "address": "10 Grosvenor Square",
      "zip": "W1K 6JP",
      "city": "London",
      "amexId": "14fa4d51-442c-41c1-842c-982f6486be2d",
      "assumedLocation": {
        "lat": 51.5124308,
        "lon": -0.1509869
      },
      "googleMapsUrl": "https://www.google.com/maps/search/Lucky+Cat,+10+Grosvenor+Square,+London/@51.5124308,-0.1509869"
    },
    {
      "name": "Lutyens Grill",
      "address": "The Ned, 27 Poultry",
      "zip": "EC2R 8AJ",
      "city": "London",
      "amexId": "b3d5a0d4-e891-42b4-a277-55fde8b38f42",
      "assumedLocation": {
        "lat": 51.5138753,
        "lon": -0.0900331
      },
      "googleMapsUrl": "https://www.google.com/maps/search/Lutyens+Grill,+The+Ned%2C+27+Poultry,+London/@51.5138753,-0.0900331"
    },
    {
      "name": "Lyle's",
      "address": "Tea Building, 56 Shoreditch High Street",
      "zip": "E1 6JJ",
      "city": "London",
      "amexId": "5db3d514-7c46-4268-b521-3fb11bf62607",
      "assumedLocation": null,
      "googleMapsUrl": "https://www.google.com/maps/search/?api=1&query=Lyle%27S,+Ground+Floor%2C+Tea+Building,+London&query_place_id=ChIJzTzkzLAcdkgRbwmAyPCNQ9o"
    },
    {
      "name": "Madison",
      "address": "Madison Restaurant, Rooftop Terrace, One New Change, St Paul's",
      "zip": "EC4M 9AF",
      "city": "London",
      "amexId": "8c6390a5-7128-4f09-8abb-dcfab11c2aba",
      "assumedLocation": null,
      "googleMapsUrl": "https://www.google.com/maps/search/?api=1&query=Madisons,+1+New+Change%2C+St+Paul%27South%2CRooftop+Terr,+London&query_place_id=ChIJQYIo3KoEdkgRLLQeg-mgnR4"
    },
    {
      "name": "Margot Restaurant",
      "address": "45 Great Queen Street, Covent Garden",
      "zip": "WC2B 5AA",
      "city": "London",
      "amexId": "efb5b9f4-9c7d-4da8-9993-e8c9158dfad6",
      "assumedLocation": {
        "lat": 51.5146999,
        "lon": -0.1217227
      },
      "googleMapsUrl": "https://www.google.com/maps/search/Margot+Restaurant,+45+Great+Queen+Street%2C+Covent+Garden,+London/@51.5146999,-0.1217227"
    },
    {
      "name": "New Street Grill",
      "address": "16A New Street",
      "zip": "EC2M 4TR",
      "city": "London",
      "amexId": "c964bfa9-294e-40b4-b974-9d337641cce2",
      "assumedLocation": {
        "lat": 51.5173256,
        "lon": -0.0801449
      },
      "googleMapsUrl": "https://www.google.com/maps/search/New+Street+Grill,+16A+New+Street,+London/@51.5173256,-0.0801449"
    },
    {
      "name": "Nobu London",
      "address": "The Metropolitan Hotel, 19 Old Park Lane",
      "zip": "W1K 1LB",
      "city": "London",
      "amexId": "4ec35eaa-d0b1-483c-91c8-196987cd7897",
      "assumedLocation": {
        "lat": 51.505149,
        "lon": -0.1501351
      },
      "googleMapsUrl": "https://www.google.com/maps/search/Nobu+London,+The+Metropolitan+Hotel%2C+19+Old+Park+Lane,+London/@51.505149,-0.1501351"
    },
    {
      "name": "Novikov Asian",
      "address": "50A Berkeley Street",
      "zip": "W1J 8HA",
      "city": "London",
      "amexId": "bff01848-234f-4d9b-bb8b-e35687c5b498",
      "assumedLocation": {
        "lat": 51.5077048,
        "lon": -0.1429171
      },
      "googleMapsUrl": "https://www.google.com/maps/search/Novikov+Asian,+50A+Berkeley+Street,+London/@51.5077048,-0.1429171"
    },
    {
      "name": "Novikov Italian",
      "address": "50A Berkeley Street",
      "zip": "W1J 8HA",
      "city": "London",
      "amexId": "8ad3fdec-0e92-4e26-ac79-1dde2b472612",
      "assumedLocation": {
        "lat": 51.5077048,
        "lon": -0.1429171
      },
      "googleMapsUrl": "https://www.google.com/maps/search/Novikov+Italian,+50A+Berkeley+Street,+London/@51.5077048,-0.1429171"
    },
    {
      "name": "Oblix",
      "address": "Level 32, The Shard, 31 St. Thomas Street",
      "zip": "SE1 9RY",
      "city": "London",
      "amexId": "5d252d3f-1ec6-43aa-90a9-a55f72dffb91",
      "assumedLocation": null,
      "googleMapsUrl": "https://www.google.com/maps/search/?api=1&query=Oblix,+Level+32%2C+The+Shard%2C+31+St+32Nd+Floor,+London&query_place_id=ChIJnxNIoFADdkgRoBZvx1YsT8c"
    },
    {
      "name": "Ochre",
      "address": "National Gallery, Trafalgar Square",
      "zip": "WC2N 5DN",
      "city": "London",
      "amexId": "b2a3ab8d-cf46-4914-a9a8-917dad459f07",
      "assumedLocation": {
        "lat": 51.50895,
        "lon": -0.1273024
      },
      "googleMapsUrl": "https://www.google.com/maps/search/Ochre,+National+Gallery%2C+Trafalgar+Square,+London/@51.50895,-0.1273024"
    },
    {
      "name": "One Ashbourne",
      "address": "1255 Finchley Road",
      "zip": "NW11 0AD",
      "city": "London",
      "amexId": "f5f7d7b1-6d92-43b8-b7e8-7859acc4b746",
      "assumedLocation": {
        "lat": 51.586032,
        "lon": -0.200038
      },
      "googleMapsUrl": "https://www.google.com/maps/search/One+Ashbourne,+1255+Finchley+Road,+London/@51.586032,-0.200038"
    },
    {
      "name": "Opheem",
      "address": "48-65 Summer Row",
      "zip": "B3 1JJ",
      "city": "Birmingham",
      "amexId": "1993e40d-0aad-4e44-b3cd-1d5cb630787b",
      "assumedLocation": null,
      "googleMapsUrl": "https://www.google.com/maps/search/?api=1&query=Opheem,+48+Summer+Row,+Birmingham&query_place_id=ChIJnbHPM2u9cEgR6QBpYYNMxAE"
    },
    {
      "name": "Orrery",
      "address": "55 Marylebone High Street",
      "zip": "W1U 5RB",
      "city": "London",
      "amexId": "5c442198-30e3-4fc6-bdca-4b3bc078a20c",
      "assumedLocation": {
        "lat": 51.5222369,
        "lon": -0.1512015
      },
      "googleMapsUrl": "https://www.google.com/maps/search/Orrery,+55+Marylebone+High+Street,+London/@51.5222369,-0.1512015"
    },
    {
      "name": "Park Chinois",
      "address": "17 Berkeley Street",
      "zip": "W1J 8ED",
      "city": "London",
      "amexId": "3e238f02-fdce-4df0-98aa-5d154c3e236d",
      "assumedLocation": {
        "lat": 51.5086692,
        "lon": -0.1436032
      },
      "googleMapsUrl": "https://www.google.com/maps/search/Park+Chinois,+17+Berkeley+Street,+London/@51.5086692,-0.1436032"
    },
    {
      "name": "Paternoster Chop House",
      "address": "35 Old Bailey",
      "zip": "EC4M 7AU",
      "city": "London",
      "amexId": "5d4b1b18-cc91-44ca-97b9-9733ff1d5b96",
      "assumedLocation": {
        "lat": 51.5144719,
        "lon": -0.102689
      },
      "googleMapsUrl": "https://www.google.com/maps/search/Paternoster+Chop+House,+35+Old+Bailey,+London/@51.5144719,-0.102689"
    },
    {
      "name": "Petrus",
      "address": "1 Kinnerton Street London",
      "zip": "SW1X 8EA",
      "city": "London",
      "amexId": "e97c9f6e-6c31-4727-960f-83a7b5cfadfb",
      "assumedLocation": {
        "lat": 51.4987658,
        "lon": -0.1409079
      },
      "googleMapsUrl": "https://www.google.com/maps/search/Petrus,+1+Kinnerton+Street+London,+London/@51.4987658,-0.1409079"
    },
    {
      "name": "Plateau",
      "address": "4th Floor, Canada Place, Canada Square",
      "zip": "E14 5ER",
      "city": "London",
      "amexId": "d0fd26c9-0484-42f0-b65e-a0b096a99ce7",
      "assumedLocation": null,
      "googleMapsUrl": "https://www.google.com/maps/search/?api=1&query=Plateau,+4th+Floor%2C+Canada+Place%2C+Canada+Square,+London&query_place_id=ChIJiehb-7kCdkgRuCySgwToirk"
    },
    {
      "name": "Pollen Street Social",
      "address": "8-10 Pollen Street",
      "zip": "W1S 1NQ",
      "city": "London",
      "amexId": "7853e980-6e63-4533-aeb6-6f47e9ffe0ae",
      "assumedLocation": null,
      "googleMapsUrl": "https://www.google.com/maps/search/?api=1&query=Pollen+Street+Social,+8-10+Pollen+Street,+London&query_place_id=ChIJ_5hCrlADdkgRGXR__rO1_yU"
    },
    {
      "name": "Quaglino's",
      "address": "16 Bury Street, St. James",
      "zip": "SW1Y 6AJ",
      "city": "London",
      "amexId": "dbdb3295-2395-42a6-8f43-06808a03fe46",
      "assumedLocation": {
        "lat": 51.5074754,
        "lon": -0.1389263
      },
      "googleMapsUrl": "https://www.google.com/maps/search/Quaglino%27s,+16+Bury+Street%2C+St.+James,+London/@51.5074754,-0.1389263"
    },
    {
      "name": "Roka",
      "address": "37 Charlotte Street",
      "zip": "W1T 1RR",
      "city": "London",
      "amexId": "02691feb-9c0f-42b6-a114-a8bb81eb40d6",
      "assumedLocation": {
        "lat": 51.5189905,
        "lon": -0.1355797
      },
      "googleMapsUrl": "https://www.google.com/maps/search/Roka,+37+Charlotte+Street,+London/@51.5189905,-0.1355797"
    },
    {
      "name": "Roka Aldwych",
      "address": "71 Aldwych",
      "zip": "WC2B 4HN",
      "city": "London",
      "amexId": "192cb6f3-936a-40a8-8ba3-218d664b78ab",
      "assumedLocation": {
        "lat": 51.5134847,
        "lon": -0.1163192
      },
      "googleMapsUrl": "https://www.google.com/maps/search/Roka+Aldwych,+71+Aldwych,+London/@51.5134847,-0.1163192"
    },
    {
      "name": "Sabor",
      "address": "35-37 Heddon Street",
      "zip": "W1B 4BR",
      "city": "London",
      "amexId": "4e5512c5-5d55-4cc6-b06d-0bf74bcb3176",
      "assumedLocation": {
        "lat": 51.5113546,
        "lon": -0.1397219
      },
      "googleMapsUrl": "https://www.google.com/maps/search/Sabor,+35-37+Heddon+Street,+London/@51.5113546,-0.1397219"
    },
    {
      "name": "Sartoria",
      "address": "Heathcoat House 20 Savile Row, Mayfair",
      "zip": "W1S 3PR",
      "city": "London",
      "amexId": "fb44e438-108c-4b2f-865d-5b0d69c16622",
      "assumedLocation": {
        "lat": 51.5116632,
        "lon": -0.1405935
      },
      "googleMapsUrl": "https://www.google.com/maps/search/Sartoria,+Heathcoat+House+20+Savile+Row%2C+Mayfair,+London/@51.5116632,-0.1405935"
    },
    {
      "name": "Savoy Grill Gordon Ramsay",
      "address": "The Savoy",
      "zip": "WC2R 0EU",
      "city": "London",
      "amexId": "bdc10bc2-a59e-4865-bf5a-be441fdbdd75",
      "assumedLocation": null,
      "googleMapsUrl": "https://www.google.com/maps/search/?api=1&query=Savoy+Grill+Gordon+Ramsay,+The+Savoy,+London&query_place_id=ChIJPyb_JskEdkgRfrReO4J7lhc"
    },
    {
      "name": "Sexy Fish",
      "address": "Berkeley Square House, Berkeley Square",
      "zip": "W1J 6BR",
      "city": "London",
      "amexId": "c9f3f36f-18c4-4e9d-8a72-f06d5866262e",
      "assumedLocation": {
        "lat": 51.5092932,
        "lon": -0.1443304
      },
      "googleMapsUrl": "https://www.google.com/maps/search/Sexy+Fish,+Berkeley+Square+House%2C+Berkeley+Square,+London/@51.5092932,-0.1443304"
    },
    {
      "name": "Simpsons",
      "address": "20 Highfield Road, Edgbaston",
      "zip": "B15 3DU",
      "city": "Birmingham",
      "amexId": "3f24c16c-eb1c-4a00-9385-e0d82565f5a9",
      "assumedLocation": {
        "lat": 52.468337,
        "lon": -1.922959
      },
      "googleMapsUrl": "https://www.google.com/maps/search/Simpsons,+20+Highfield+Road%2C+Edgbaston,+Birmingham/@52.468337,-1.922959"
    },
    {
      "name": "Sketch",
      "address": "9 Conduit Street",
      "zip": "W1S 2XG",
      "city": "London",
      "amexId": "1a2ca608-822d-4cec-9c88-7cf3ad2f5a76",
      "assumedLocation": {
        "lat": 51.512693,
        "lon": -0.141529
      },
      "googleMapsUrl": "https://www.google.com/maps/search/Sketch,+9+Conduit+Street,+London/@51.512693,-0.141529"
    },
    {
      "name": "Skylon",
      "address": "Royal Festival Hall",
      "zip": "SE1 8XX",
      "city": "London",
      "amexId": "e0d2e282-92ac-4e46-be07-d89eed9ee69c",
      "assumedLocation": {
        "lat": 51.505722,
        "lon": -0.1174495
      },
      "googleMapsUrl": "https://www.google.com/maps/search/Skylon,+Royal+Festival+Hall,+London/@51.505722,-0.1174495"
    },
    {
      "name": "Smokestak",
      "address": "35 Sclater Street",
      "zip": "E1 6LB",
      "city": "London",
      "amexId": "e3197d34-e20d-4723-b0da-d2079ef60c2d",
      "assumedLocation": {
        "lat": 51.5236833,
        "lon": -0.0729382
      },
      "googleMapsUrl": "https://www.google.com/maps/search/Smokestak,+35+Sclater+Street,+London/@51.5236833,-0.0729382"
    },
    {
      "name": "Som Saa",
      "address": "43A Commercial St",
      "zip": "E1 6BD",
      "city": "London",
      "amexId": "a5d357b7-db51-4160-8b31-386cbf89b8c4",
      "assumedLocation": {
        "lat": 51.5172463,
        "lon": -0.0737796
      },
      "googleMapsUrl": "https://www.google.com/maps/search/Som+Saa,+43A+Commercial+St,+London/@51.5172463,-0.0737796"
    },
    {
      "name": "South Place Chophouse",
      "address": "3 South Place",
      "zip": "EC2M 2AF",
      "city": "London",
      "amexId": "c0e42e8a-dc5d-4e9a-963d-0e8a55358700",
      "assumedLocation": {
        "lat": 51.519086,
        "lon": -0.086641
      },
      "googleMapsUrl": "https://www.google.com/maps/search/South+Place+Chophouse,+3+South+Place,+London/@51.519086,-0.086641"
    },
    {
      "name": "Sushi Samba",
      "address": "110 Bishopsgate, Heron Tower",
      "zip": "EC2N 4AY",
      "city": "London",
      "amexId": "be69167b-95c5-40de-9594-fbfe6c9881b6",
      "assumedLocation": {
        "lat": 51.5162822,
        "lon": -0.0809644
      },
      "googleMapsUrl": "https://www.google.com/maps/search/Sushi+Samba,+110+Bishopsgate%2C+Heron+Tower,+London/@51.5162822,-0.0809644"
    },
    {
      "name": "Sushi Samba Covent Garden",
      "address": "35 The Market",
      "zip": "WC2E 8RF",
      "city": "London",
      "amexId": "bc0b54d7-69b0-4db1-b2a2-2dd2f3cae618",
      "assumedLocation": {
        "lat": 51.5123967,
        "lon": -0.1224727
      },
      "googleMapsUrl": "https://www.google.com/maps/search/Sushi+Samba+Covent+Garden,+35+The+Market,+London/@51.5123967,-0.1224727"
    },
    {
      "name": "Tattu Birmingham",
      "address": "18 Barwick Street",
      "zip": "B3 2NT",
      "city": "Birmingham",
      "amexId": "586024f4-71fa-4f8a-a291-1f2a58467718",
      "assumedLocation": {
        "lat": 52.4821853,
        "lon": -1.8992209
      },
      "googleMapsUrl": "https://www.google.com/maps/search/Tattu+Birmingham,+18+Barwick+Street,+Birmingham/@52.4821853,-1.8992209"
    },
    {
      "name": "Tattu Edinburgh",
      "address": "18 West Register Street",
      "zip": "EH2 2AA",
      "city": "Edinburgh",
      "amexId": "a3bd1615-991e-4025-9eea-656545c896fd",
      "assumedLocation": {
        "lat": 55.9537992,
        "lon": -3.1908747
      },
      "googleMapsUrl": "https://www.google.com/maps/search/Tattu+Edinburgh,+18+West+Register+Street,+Edinburgh/@55.9537992,-3.1908747"
    },
    {
      "name": "Tattu Leeds",
      "address": "Minerva",
      "zip": "LS1 5PS",
      "city": "Leeds",
      "amexId": "28c6e124-0368-4bb4-82aa-e5d894cebe1e",
      "assumedLocation": {
        "lat": 53.798125,
        "lon": -1.5490694
      },
      "googleMapsUrl": "https://www.google.com/maps/search/Tattu+Leeds,+Minerva,+Leeds/@53.798125,-1.5490694"
    },
    {
      "name": "Tattu London",
      "address": "The Now Building Rooftop, Denmark Street",
      "zip": "WC21 OLA",
      "city": "London",
      "amexId": "f20c952d-8494-459d-b611-8743f2d5c4ab",
      "assumedLocation": {
        "lat": 51.5156186,
        "lon": -0.1299249
      },
      "googleMapsUrl": "https://www.google.com/maps/search/Tattu+London,+The+Now+Building+Rooftop%2C+Denmark+Street,+London/@51.5156186,-0.1299249"
    },
    {
      "name": "Tattu Manchester",
      "address": "3 Hardman Square, Gartside Street, Spinn",
      "zip": "M3 3EB",
      "city": "Manchester",
      "amexId": "680f88f5-36e8-4238-87e5-2c425e78023c",
      "assumedLocation": {
        "lat": 53.4796873,
        "lon": -2.2532964
      },
      "googleMapsUrl": "https://www.google.com/maps/search/Tattu+Manchester,+3+Hardman+Square%2C+Gartside+Street%2C+Spinn,+Manchester/@53.4796873,-2.2532964"
    },
    {
      "name": "The Boat",
      "address": "Walsall Road, Summerhill, Muckley corner",
      "zip": "WS140BU",
      "city": "Lichfield",
      "amexId": "0c53e71c-96eb-444b-9eb6-84761218558b",
      "assumedLocation": {
        "lat": 52.6518871,
        "lon": -1.8894477
      },
      "googleMapsUrl": "https://www.google.com/maps/search/The+Boat,+Walsall+Road%2C+Summerhill%2C+Muckley+corner,+Lichfield/@52.6518871,-1.8894477"
    },
    {
      "name": "The Colony Grill, Beaumont Hotel",
      "address": "8 Balderton Street, The Beaumont, Brown",
      "zip": "W1K 6TF",
      "city": "London",
      "amexId": "df703fc8-515a-43a5-b37c-9690a26a8209",
      "assumedLocation": {
        "lat": 51.5129278,
        "lon": -0.1522503
      },
      "googleMapsUrl": "https://www.google.com/maps/search/The+Colony+Grill%2C+Beaumont+Hotel,+8+Balderton+Street%2C+The+Beaumont%2C+Brown,+London/@51.5129278,-0.1522503"
    },
    {
      "name": "The Delaunay Restaurant",
      "address": "55 Aldwych",
      "zip": "WC2B 4BB",
      "city": "London",
      "amexId": "c5a6a8b7-8d22-4476-b479-0295edc55381",
      "assumedLocation": {
        "lat": 51.5131702,
        "lon": -0.1182237
      },
      "googleMapsUrl": "https://www.google.com/maps/search/The+Delaunay+Restaurant,+55+Aldwych,+London/@51.5131702,-0.1182237"
    },
    {
      "name": "The Ivy Asia Mayfair",
      "address": "8-10 N Audley Street",
      "zip": "W1K 6ZD",
      "city": "London",
      "amexId": "b1084036-a212-425e-abfb-bcbbbe20f7c7",
      "assumedLocation": {
        "lat": 51.5127972,
        "lon": -0.1530861
      },
      "googleMapsUrl": "https://www.google.com/maps/search/The+Ivy+Asia+Mayfair,+8-10+N+Audley+Street,+London/@51.5127972,-0.1530861"
    },
    {
      "name": "The Ivy St Albans",
      "address": "1-3 Verulam Road",
      "zip": "AL3 4DA",
      "city": "St. Albans",
      "amexId": "00464d55-6fc9-4ff3-9a1e-f3e33a4798b9",
      "assumedLocation": {
        "lat": 51.7517512,
        "lon": -0.3413734
      },
      "googleMapsUrl": "https://www.google.com/maps/search/The+Ivy+St+Albans,+1-3+Verulam+Road,+St.+Albans/@51.7517512,-0.3413734"
    },
    {
      "name": "The Ivy In The Lanes",
      "address": "51A Ship Street",
      "zip": "BN1 1AF",
      "city": "Brighton",
      "amexId": "128334ce-f1a5-498c-b576-8d1296ec013d",
      "assumedLocation": {
        "lat": 50.8227032,
        "lon": -0.1415213
      },
      "googleMapsUrl": "https://www.google.com/maps/search/The+Ivy+In+The+Lanes,+51A+Ship+Street,+Brighton/@50.8227032,-0.1415213"
    },
    {
      "name": "The Ivy Bath Brasserie",
      "address": "39 Milsom Street",
      "zip": "BA1 1DS",
      "city": "Bath",
      "amexId": "18321eb1-e70b-4b04-9abb-b2f2173fa1d3",
      "assumedLocation": null,
      "googleMapsUrl": "https://www.google.com/maps/search/?api=1&query=The+Ivy+Bath+Brasserie,+39+Milsom+Street,+Bath&query_place_id=ChIJL3RQdxOBcUgREJX9OcpApg4"
    },
    {
      "name": "The Ivy St Helens Square",
      "address": "2 St Helens Square",
      "zip": "YO1 8QP",
      "city": "York",
      "amexId": "21b5bb81-dd8f-4880-a5ef-00ceaadf4785",
      "assumedLocation": {
        "lat": 53.9600163,
        "lon": -1.0843839
      },
      "googleMapsUrl": "https://www.google.com/maps/search/The+Ivy+St+Helens+Square,+2+St+Helens+Square,+York/@53.9600163,-1.0843839"
    },
    {
      "name": "The Ivy Cafe Marylebone",
      "address": "96 Marylebone Lane",
      "zip": "W1U 2QA",
      "city": "London",
      "amexId": "2873b4d3-63dd-473a-a24d-b1a5fcf72ea2",
      "assumedLocation": {
        "lat": 51.5175037,
        "lon": -0.1506066
      },
      "googleMapsUrl": "https://www.google.com/maps/search/The+Ivy+Cafe+Marylebone,+96+Marylebone+Lane,+London/@51.5175037,-0.1506066"
    },
    {
      "name": "The Ivy Cambridge",
      "address": "16 Trinity St,City Centre",
      "zip": "CB2 1TB",
      "city": "Cambridge",
      "amexId": "2b3a3acf-d4da-41e5-a2b3-1cb922593681",
      "assumedLocation": {
        "lat": 52.2067646,
        "lon": 0.1184581
      },
      "googleMapsUrl": "https://www.google.com/maps/search/The+Ivy+Cambridge,+16+Trinity+St%2CCity+Centre,+Cambridge/@52.2067646,0.1184581"
    },
    {
      "name": "Ivy West Street",
      "address": "1-5 West Street",
      "zip": "WC2H 9NQ",
      "city": "London",
      "amexId": "2d39d0c9-b7a3-4556-a08d-0d7f6d940629",
      "assumedLocation": {
        "lat": 51.5128603,
        "lon": -0.128045
      },
      "googleMapsUrl": "https://www.google.com/maps/search/Ivy+West+Street,+1-5+West+Street,+London/@51.5128603,-0.128045"
    },
    {
      "name": "The Ivy Oxford",
      "address": "120-121 High Street",
      "zip": "OX1 4DD",
      "city": "Oxford",
      "amexId": "2e300abf-277a-4f92-800d-1d1736445fd9",
      "assumedLocation": null,
      "googleMapsUrl": "https://www.google.com/maps/search/?api=1&query=The+Ivy+Oxford,+120-121+High+Street,+Oxford&query_place_id=ChIJyWfsT1nHdkgRloldSadOQTI"
    },
    {
      "name": "The Ivy Soho Brasserie",
      "address": "26-28 Broadwick Street",
      "zip": "W1F 8JB",
      "city": "London",
      "amexId": "2ee2ffb7-f175-47e6-9add-2dc62d77e91e",
      "assumedLocation": {
        "lat": 51.513836,
        "lon": -0.1357862
      },
      "googleMapsUrl": "https://www.google.com/maps/search/The+Ivy+Soho+Brasserie,+26-28+Broadwick+Street,+London/@51.513836,-0.1357862"
    },
    {
      "name": "The Ivy on The Square",
      "address": "6 St Andrew Square",
      "zip": "EH2 2BD",
      "city": "Edinburgh",
      "amexId": "325dd856-e7f7-40b9-87eb-ee360e97d8c0",
      "assumedLocation": {
        "lat": 55.9533945,
        "lon": -3.1934118
      },
      "googleMapsUrl": "https://www.google.com/maps/search/The+Ivy+on+The+Square,+6+St+Andrew+Square,+Edinburgh/@55.9533945,-3.1934118"
    },
    {
      "name": "The Ivy Tower Bridge",
      "address": "1 Tower Bridge",
      "zip": "SE1 2AA",
      "city": "London",
      "amexId": "36386c63-905b-4ada-9de6-e54cc17fdb60",
      "assumedLocation": null,
      "googleMapsUrl": "https://www.google.com/maps/search/?api=1&query=The+Ivy+Tower+Bridge,+1+Tower+Bridge,+London&query_place_id=ChIJEcLP7kUDdkgRw2pqyXOSXzw"
    },
    {
      "name": "The Ivy Winchester Brasserie",
      "address": "103-104 High Street",
      "zip": "SO23 9AH",
      "city": "Winchester",
      "amexId": "44c3cfc0-2a16-4180-8552-d7cab3889a7f",
      "assumedLocation": {
        "lat": 51.0628765,
        "lon": -1.3153444
      },
      "googleMapsUrl": "https://www.google.com/maps/search/The+Ivy+Winchester+Brasserie,+103-104+High+Street,+Winchester/@51.0628765,-1.3153444"
    },
    {
      "name": "The Ivy Victoria",
      "address": "66 Victoria St",
      "zip": "SW1E 6SQ",
      "city": "London",
      "amexId": "563ab5e5-05b3-4f27-8237-ff431208ce28",
      "assumedLocation": {
        "lat": 51.4974747,
        "lon": -0.1378933
      },
      "googleMapsUrl": "https://www.google.com/maps/search/The+Ivy+Victoria,+66+Victoria+St,+London/@51.4974747,-0.1378933"
    },
    {
      "name": "The Ivy Cobham Brasserie",
      "address": "48 High Street",
      "zip": "KT11 3EF",
      "city": "Cobham",
      "amexId": "57a7e05c-2ba1-49eb-a35b-638ae65a7f51",
      "assumedLocation": {
        "lat": 51.3268862,
        "lon": -0.4097383
      },
      "googleMapsUrl": "https://www.google.com/maps/search/The+Ivy+Cobham+Brasserie,+48+High+Street,+Cobham/@51.3268862,-0.4097383"
    },
    {
      "name": "The Ivy Royal Tunbridge Wells",
      "address": "46-50 High Street",
      "zip": "TN1 1XF",
      "city": "Tunbridge Wells",
      "amexId": "5b4b9692-2e7b-440d-a008-6ec62746e5b3",
      "assumedLocation": {
        "lat": 51.1282905,
        "lon": 0.261595
      },
      "googleMapsUrl": "https://www.google.com/maps/search/The+Ivy+Royal+Tunbridge+Wells,+46-50+High+Street,+Tunbridge+Wells/@51.1282905,0.261595"
    },
    {
      "name": "The Ivy Glasgow",
      "address": "106 Buchanan Street",
      "zip": "G1 2NB",
      "city": "Glasgow",
      "amexId": "673564e5-5383-4992-8533-f0d7b515ab18",
      "assumedLocation": {
        "lat": 55.8605557,
        "lon": -4.2538472
      },
      "googleMapsUrl": "https://www.google.com/maps/search/The+Ivy+Glasgow,+106+Buchanan+Street,+Glasgow/@55.8605557,-4.2538472"
    },
    {
      "name": "The Ivy Cafe Richmond",
      "address": "9-11 Hill Street",
      "zip": "TW9 1SX",
      "city": "Richmond-upon-Thames",
      "amexId": "6a6001ef-5546-4c84-96ba-e8cb9a9d68b2",
      "assumedLocation": {
        "lat": 51.4591602,
        "lon": -0.3063388
      },
      "googleMapsUrl": "https://www.google.com/maps/search/The+Ivy+Cafe+Richmond,+9-11+Hill+Street,+Richmond-upon-Thames/@51.4591602,-0.3063388"
    },
    {
      "name": "The Ivy Marlow Garden",
      "address": "66-68 High Street",
      "zip": "SL7 1AH",
      "city": "Marlow",
      "amexId": "6d99fad0-2160-4c6f-a5d8-42e5d982c070",
      "assumedLocation": {
        "lat": 51.5702934,
        "lon": -0.77552
      },
      "googleMapsUrl": "https://www.google.com/maps/search/The+Ivy+Marlow+Garden,+66-68+High+Street,+Marlow/@51.5702934,-0.77552"
    },
    {
      "name": "The Ivy Chelsea Garden",
      "address": "195-197 King's Road",
      "zip": "SW3 5EQ",
      "city": "London",
      "amexId": "7bfb7ae8-2018-4b0a-aa22-5e89436b9a2d",
      "assumedLocation": null,
      "googleMapsUrl": "https://www.google.com/maps/search/?api=1&query=The+Ivy+Chelsea+Garden,+197+Kings+Road,+London&query_place_id=ChIJJ-MhPWwFdkgRKVwtA039nU0"
    },
    {
      "name": "The Ivy Asia St Paul's",
      "address": "20 New Change Road",
      "zip": "EC4M 9AG",
      "city": "London",
      "amexId": "832348f5-24bb-44a1-a13b-4081a240ad28",
      "assumedLocation": {
        "lat": 51.5137384,
        "lon": -0.0961118
      },
      "googleMapsUrl": "https://www.google.com/maps/search/The+Ivy+Asia+St+Paul%27s,+20+New+Change+Road,+London/@51.5137384,-0.0961118"
    },
    {
      "name": "The Ivy Montpelier Brasserie",
      "address": "Rotunda Terrace",
      "zip": "GL50 1SH",
      "city": "Cheltenham",
      "amexId": "88a7f918-0587-4d82-993d-22481250214d",
      "assumedLocation": null,
      "googleMapsUrl": "https://www.google.com/maps/search/?api=1&query=The+Ivy+Montpelier+Brasserie,+Rotunda+Terrace,+Cheltenham&query_place_id=ChIJD4ybhqEbcUgRwiWfbkkMt9Q"
    },
    {
      "name": "The Ivy Cafe Blackheath",
      "address": "43-45 Montpelier Vale, Blackheath",
      "zip": "SE3 0TJ",
      "city": "London",
      "amexId": "8910e500-db64-42a4-b5c5-d4afd8cd80d1",
      "assumedLocation": {
        "lat": 51.467557,
        "lon": 0.0080983
      },
      "googleMapsUrl": "https://www.google.com/maps/search/The+Ivy+Cafe+Blackheath,+43-45+Montpelier+Vale%2C+Blackheath,+London/@51.467557,0.0080983"
    },
    {
      "name": "The Ivy Temple Row",
      "address": "67-71 Temple Row",
      "zip": "B2 5LS",
      "city": "Birmingham",
      "amexId": "8f7dcd7f-8269-46d0-89a1-b97d863bfe67",
      "assumedLocation": {
        "lat": 52.4805225,
        "lon": -1.8988521
      },
      "googleMapsUrl": "https://www.google.com/maps/search/The+Ivy+Temple+Row,+67-71+Temple+Row,+Birmingham/@52.4805225,-1.8988521"
    },
    {
      "name": "The Ivy Market Grill",
      "address": "1a Henrietta Street, Covent Garden",
      "zip": "WC2E 8PS",
      "city": "London",
      "amexId": "9566f240-5539-49ff-abd6-3c19b7be61aa",
      "assumedLocation": {
        "lat": 51.5113708,
        "lon": -0.1227007
      },
      "googleMapsUrl": "https://www.google.com/maps/search/The+Ivy+Market+Grill,+1a+Henrietta+Street%2C+Covent+Garden,+London/@51.5113708,-0.1227007"
    },
    {
      "name": "The Ivy Kensington Brasserie",
      "address": "96 Kensington High Street",
      "zip": "W8 4SG",
      "city": "London",
      "amexId": "95dd989d-3f8f-4e0d-9b2c-d15763a6ac86",
      "assumedLocation": {
        "lat": 51.5016239,
        "lon": -0.1922527
      },
      "googleMapsUrl": "https://www.google.com/maps/search/The+Ivy+Kensington+Brasserie,+96+Kensington+High+Street,+London/@51.5016239,-0.1922527"
    },
    {
      "name": "The Ivy Norwich Brasserie",
      "address": "30 London Street",
      "zip": "NR2 1LD",
      "city": "Norwich",
      "amexId": "abc362e9-01ff-44dc-8b4d-d04427c19327",
      "assumedLocation": {
        "lat": 52.629185,
        "lon": 1.2950091
      },
      "googleMapsUrl": "https://www.google.com/maps/search/The+Ivy+Norwich+Brasserie,+30+London+Street,+Norwich/@52.629185,1.2950091"
    },
    {
      "name": "The Ivy Cardiff",
      "address": "Lg 69/70 St David South 2 Shopping Cen",
      "zip": "CF10 1GA",
      "city": "Cardiff",
      "amexId": "b06a4a29-3b48-45ab-a253-2a112ba482b8",
      "assumedLocation": {
        "lat": 51.4783609,
        "lon": -3.1753165
      },
      "googleMapsUrl": "https://www.google.com/maps/search/The+Ivy+Cardiff,+Lg+69%2F70+St+David+South+2+Shopping+Cen,+Cardiff/@51.4783609,-3.1753165"
    },
    {
      "name": "The Ivy In The Park",
      "address": "50 Canada Square Park",
      "zip": "E14 5FW",
      "city": "London",
      "amexId": "bb8f9ad2-a852-44bd-b5ac-5c2781e7f69f",
      "assumedLocation": null,
      "googleMapsUrl": "https://www.google.com/maps/search/?api=1&query=The+Ivy+In+The+Park,+50+Canada+Square+Park,+London&query_place_id=ChIJdxXJeogDdkgRsylgeqPil0w"
    },
    {
      "name": "The Ivy Clifton Brasserie",
      "address": "42-44 Caledonia Place, Clifton",
      "zip": "BS8 4DN",
      "city": "Bristol",
      "amexId": "d4f3d884-4a6c-4a13-8184-b3758b6cd197",
      "assumedLocation": {
        "lat": 51.4548329,
        "lon": -2.6209847
      },
      "googleMapsUrl": "https://www.google.com/maps/search/The+Ivy+Clifton+Brasserie,+42-44+Caledonia+Place%2C+Clifton,+Bristol/@51.4548329,-2.6209847"
    },
    {
      "name": "The Ivy Harrogate Brasserie",
      "address": "7-9 Parliament Street",
      "zip": "HG1 2QU",
      "city": "Harrogate",
      "amexId": "de076ba1-f345-40b3-9015-e7b11be93422",
      "assumedLocation": {
        "lat": 53.9930754,
        "lon": -1.5429619
      },
      "googleMapsUrl": "https://www.google.com/maps/search/The+Ivy+Harrogate+Brasserie,+7-9+Parliament+Street,+Harrogate/@53.9930754,-1.5429619"
    },
    {
      "name": "The Ivy City Garden",
      "address": "Dashwood House, 69 Old Broad Street",
      "zip": "EC2M 1QS",
      "city": "London",
      "amexId": "de77b1a8-4fb6-408b-88e4-3bff36452040",
      "assumedLocation": {
        "lat": 51.5169435,
        "lon": -0.0827346
      },
      "googleMapsUrl": "https://www.google.com/maps/search/The+Ivy+City+Garden,+Dashwood+House%2C+69+Old+Broad+Street,+London/@51.5169435,-0.0827346"
    },
    {
      "name": "The Ivy Victoria Quarter",
      "address": "Vicar Lane",
      "zip": "LS1 6BB",
      "city": "Leeds",
      "amexId": "df595d44-b5bc-4464-932a-bb8ec7a33fde",
      "assumedLocation": {
        "lat": 53.7979608,
        "lon": -1.540386
      },
      "googleMapsUrl": "https://www.google.com/maps/search/The+Ivy+Victoria+Quarter,+Vicar+Lane,+Leeds/@53.7979608,-1.540386"
    },
    {
      "name": "The Ivy Cafe Wimbledon",
      "address": "75 High Street, Wimbledon Village",
      "zip": "SW19 5EQ",
      "city": "London",
      "amexId": "e1e49943-b3de-428d-aee7-ba2ebd0227d6",
      "assumedLocation": null,
      "googleMapsUrl": "https://www.google.com/maps/search/?api=1&query=The+Ivy+Cafe+Wimbledon,+75+High+Street%2C+Wimbledon+Village%2C+Wimbl,+London&query_place_id=ChIJHXzcqc4IdkgRxHN6spna1y0"
    },
    {
      "name": "The Ivy Spinningfields",
      "address": "The Pavilion",
      "zip": "M3 3HG",
      "city": "Manchester",
      "amexId": "e42bc813-8f30-4191-bdb8-932142e22764",
      "assumedLocation": {
        "lat": 53.4795585,
        "lon": -2.251635
      },
      "googleMapsUrl": "https://www.google.com/maps/search/The+Ivy+Spinningfields,+The+Pavilion,+Manchester/@53.4795585,-2.251635"
    },
    {
      "name": "The Ivy Cafe St Johns Wood",
      "address": "120 St. John's Wood High Street",
      "zip": "NW8 7SG",
      "city": "London",
      "amexId": "e9e9a973-4b85-438d-9e98-a4b4c97a756d",
      "assumedLocation": {
        "lat": 51.5335235,
        "lon": -0.1704455
      },
      "googleMapsUrl": "https://www.google.com/maps/search/The+Ivy+Cafe+St+Johns+Wood,+120+St.+John%27s+Wood+High+Street,+London/@51.5335235,-0.1704455"
    },
    {
      "name": "The Ivy Castle View",
      "address": "Tunsgate Quarter,98-110 High Street",
      "zip": "GU1 3QY",
      "city": "Guildford",
      "amexId": "f9259983-36b1-4aac-ab41-9c46e77f1085",
      "assumedLocation": {
        "lat": 51.2348832,
        "lon": -0.5721387
      },
      "googleMapsUrl": "https://www.google.com/maps/search/The+Ivy+Castle+View,+Tunsgate+Quarter%2C98-110+High+Street,+Guildford/@51.2348832,-0.5721387"
    },
    {
      "name": "The Little Fish Market",
      "address": "10 Upper Market Street",
      "zip": "BN3 1AS",
      "city": "Brighton",
      "amexId": "bba1d458-cf48-43b7-b4e3-06bec2bad99f",
      "assumedLocation": {
        "lat": 50.8248886,
        "lon": -0.1574252
      },
      "googleMapsUrl": "https://www.google.com/maps/search/The+Little+Fish+Market,+10+Upper+Market+Street,+Brighton/@50.8248886,-0.1574252"
    },
    {
      "name": "The Loch & The Tyne",
      "address": "10 Crimp Hill, Old Windsor",
      "zip": "SL4 2QY",
      "city": "Windsor",
      "amexId": "b1138f47-d9ae-4564-8f44-b2d0f5d87eef",
      "assumedLocation": {
        "lat": 51.456964,
        "lon": -0.590595
      },
      "googleMapsUrl": "https://www.google.com/maps/search/The+Loch+%26+The+Tyne,+10+Crimp+Hill%2C+Old+Windsor,+Windsor/@51.456964,-0.590595"
    },
    {
      "name": "The Ninth",
      "address": "22 Charlotte Street",
      "zip": "W1T 2NB",
      "city": "London",
      "amexId": "6541a56d-7db5-472e-85db-c9481859cccf",
      "assumedLocation": {
        "lat": 51.5187346,
        "lon": -0.1348487
      },
      "googleMapsUrl": "https://www.google.com/maps/search/The+Ninth,+22+Charlotte+Street,+London/@51.5187346,-0.1348487"
    },
    {
      "name": "The Wolseley Restaurant Ltd",
      "address": "160 Piccadilly",
      "zip": "W1J 9EB",
      "city": "London",
      "amexId": "6bf1792a-1610-4488-bcb6-9bf4e9638d9b",
      "assumedLocation": {
        "lat": 51.5074427,
        "lon": -0.1409233
      },
      "googleMapsUrl": "https://www.google.com/maps/search/The+Wolseley+Restaurant+Ltd,+160+Piccadilly,+London/@51.5074427,-0.1409233"
    },
    {
      "name": "Toklas",
      "address": "1 Surrey Street",
      "zip": "WC2R 2ND",
      "city": "London",
      "amexId": "1c215a53-1a2a-4944-a346-062fef49a6a8",
      "assumedLocation": {
        "lat": 51.5120126,
        "lon": -0.1152601
      },
      "googleMapsUrl": "https://www.google.com/maps/search/Toklas,+1+Surrey+Street,+London/@51.5120126,-0.1152601"
    },
    {
      "name": "Ugly Butterfly",
      "address": "Carbis Bay Estate, Carbis Bay,Saint Ives",
      "zip": "TR26 2NP",
      "city": "Cornwall",
      "amexId": "36f8e5ac-b66f-42b4-aec6-c386cebcb981",
      "assumedLocation": null,
      "googleMapsUrl": "https://www.google.com/maps/search/?api=1&query=Ugly+Butterfly,+Carbis+Bay+Estate%2C+Carbis+Bay%2CSaint+Ives,+CORNWALL&query_place_id=ChIJn_Zm_ZjdakgRZlegtSF8Q_s"
    },
    {
      "name": "Umu",
      "address": "14-16 Bruton Place",
      "zip": "W1J 6LX",
      "city": "London",
      "amexId": "25667b56-d940-4eb2-a5fe-7f3b79ddac10",
      "assumedLocation": {
        "lat": 51.5113972,
        "lon": -0.1443833
      },
      "googleMapsUrl": "https://www.google.com/maps/search/Umu,+14-16+Bruton+Place,+London/@51.5113972,-0.1443833"
    },
    {
      "name": "Veeraswamy",
      "address": "Mezzanine Floor, Victory House, 99 Regent Street",
      "zip": "W1B 4RS",
      "city": "London",
      "amexId": "9b0b2a9f-1cab-47de-89e5-a76a65b61a4d",
      "assumedLocation": null,
      "googleMapsUrl": "https://www.google.com/maps/search/?api=1&query=Veeraswamy,+99+Regent+Street%2C+Mezzanine+Floor%2C+Victo,+London&query_place_id=ChIJnVRkK9QEdkgRz8uiqq2HfjM"
    },
    {
      "name": "Yauatcha City",
      "address": "43 Broadgate Circle",
      "zip": "EC2M 2QS",
      "city": "London",
      "amexId": "2447b62b-d899-4af5-be08-ab79021e38cc",
      "assumedLocation": null,
      "googleMapsUrl": "https://www.google.com/maps/search/?api=1&query=Yauatcha+City,+43+Broadgate+Circle+Broadgate,+London&query_place_id=ChIJ97jvuq0cdkgRkLC8qOE5f-k"
    },
    {
      "name": "Yauatcha Soho",
      "address": "15-17 Broadwick Street",
      "zip": "W1F 0DL",
      "city": "London",
      "amexId": "03a6b107-9d17-4c64-baca-952b84858cab",
      "assumedLocation": {
        "lat": 51.513587,
        "lon": -0.1351682
      },
      "googleMapsUrl": "https://www.google.com/maps/search/Yauatcha+Soho,+15-17+Broadwick+Street,+London/@51.513587,-0.1351682"
    }
  ]
}